"Data Year","ID","Property Name","Reporting Status","Address","ZIP Code","Chicago Energy Rating","Exempt From Chicago Energy Rating","Community Area","Primary Property Type","Gross Floor Area - Buildings (sq ft)","Year Built","# of Buildings","Water Use (kGal)","ENERGY STAR Score","Electricity Use (kBtu)","Natural Gas Use (kBtu)","District Steam Use (kBtu)","District Chilled Water Use (kBtu)","All Other Fuel Use (kBtu)","Site EUI (kBtu/sq ft)","Source EUI (kBtu/sq ft)","Weather Normalized Site EUI (kBtu/sq ft)","Weather Normalized Source EUI (kBtu/sq ft)","Total GHG Emissions (Metric Tons CO2e)","GHG Intensity (kg CO2e/sq ft)","Latitude","Longitude","Location","Row_ID"
"2021","101671",,"Not Submitted","6101 6115 N SEELEY AVE","60659","0.0","false","WEST RIDGE",,"65,250",,,,,,,,,,,,,,,,"41.99046172","-87.70620782","POINT (-87.70620782 41.99046172)","2021-101671"
"2021","101826","Drexel Building","Not Submitted","8136 8142 S DREXEL AVE","60619","0.0","false","CHATHAM",,"66,888",,,,,,,,,,,,,,,,"41.74401302","-87.60549928","POINT (-87.60549928 41.74401302)","2021-101826"
"2021","102323",,"Not Submitted","3515 3525 W FRANKLIN BLVD","60624","0.0","false","HUMBOLDT PARK",,"93,000",,,,,,,,,,,,,,,,"41.8808242","-87.72327934","POINT (-87.72327934 41.8808242)","2021-102323"
"2021","104374",,"Not Submitted","6000  N SHERIDAN RD","60660","0.0","false","EDGEWATER",,"55,686",,,,,,,,,,,,,,,,"41.99090057","-87.66660744","POINT (-87.66660744 41.99090057)","2021-104374"
"2021","109238",,"Not Submitted","4572  N MILWAUKEE AVE","60630","0.0","false","PORTAGE PARK",,"63,800",,,,,,,,,,,,,,,,"41.97200414","-87.75756578","POINT (-87.75756578 41.97200414)","2021-109238"
"2021","112801",,"Not Submitted","5740  N SHERIDAN RD","60660","0.0","false","EDGEWATER",,"104,500",,,,,,,,,,,,,,,,"41.99090057","-87.66660744","POINT (-87.66660744 41.99090057)","2021-112801"
"2021","115231",,"Not Submitted","1209 1213 W SHERWIN AVE","60626","0.0","false","ROGERS PARK",,"59,296",,,,,,,,,,,,,,,,"42.01036185","-87.66829765","POINT (-87.66829765 42.01036185)","2021-115231"
"2021","116534",,"Not Submitted","410  E BOWEN AVE","60653","0.0","false","GRAND BOULEVARD",,"156,544",,,,,,,,,,,,,,,,"41.82021138","-87.61246867","POINT (-87.61246867 41.82021138)","2021-116534"
"2021","119405",,"Not Submitted","226 W ONTARIO ST","60654","0.0","false","NEAR NORTH SIDE",,"57,600",,,,,,,,,,,,,,,,"41.89320603","-87.63490429","POINT (-87.63490429 41.89320603)","2021-119405"
"2021","130218",,"Not Submitted","2430 2458 W GEORGE ST","60618","0.0","false","AVONDALE",,"82,800",,,,,,,,,,,,,,,,"41.93399769","-87.68971091","POINT (-87.68971091 41.93399769)","2021-130218"
"2021","136695",,"Exempt","3636 3646 S IRON ST","60609",,"true","MCKINLEY PARK",,"186,000",,,,,,,,,,,,,,,,"41.82776094","-87.65952686","POINT (-87.65952686 41.82776094)","2021-136695"
"2021","139602",,"Not Submitted","4541  N SHERIDAN RD","60640","0.0","false","UPTOWN",,"61,706",,,,,,,,,,,,,,,,"41.97223008","-87.6645957","POINT (-87.6645957 41.97223008)","2021-139602"
"2021","157587","Loretto Hospital","Not Submitted","645 S CENTRAL AVE","60644","0.0","false","AUSTIN",,"311,325",,,,,,,,,,,,,,,,"41.89244639","-87.76497511","POINT (-87.76497511 41.89244639)","2021-157587"
"2021","158748","American Islamic College","Not Submitted","640 W Irving Park Rd","60613","0.0","false","UPTOWN",,"200,024",,,,,,,,,,,,,,,,"41.95492194","-87.64598619","POINT (-87.64598619 41.95492194)","2021-158748"
"2021","159575","Webster House Apartments","Not Submitted","2150 N LINCOLN PARK","60614","0.0","false","LINCOLN PARK",,"254,505",,,,,,,,,,,,,,,,"41.92173911","-87.63682868","POINT (-87.63682868 41.92173911)","2021-159575"
"2021","173776",,"Not Submitted","331  W OAKDALE AVE","60657","0.0","false","LAKE VIEW",,"50,286",,,,,,,,,,,,,,,,"41.9398511","-87.65844752","POINT (-87.65844752 41.9398511)","2021-173776"
"2021","173831","YMCA of Metro Chicago","Not Submitted","3333 N MARSHFIELD AVE","60657","0.0","false","LAKE VIEW",,"93,228",,,,,,,,,,,,,,,,"41.94246355","-87.66961411","POINT (-87.66961411 41.94246355)","2021-173831"
"2021","174189",,"Not Submitted","16  N MORGAN ST","60607","0.0","false","NEAR WEST SIDE",,"156,536",,,,,,,,,,,,,,,,"41.87399385","-87.651678","POINT (-87.651678 41.87399385)","2021-174189"
"2021","175130",,"Not Submitted","5925  N PAULINA ST","60660","0.0","false","EDGEWATER",,"50,173",,,,,,,,,,,,,,,,"41.99090057","-87.66660744","POINT (-87.66660744 41.99090057)","2021-175130"
"2021","175601",,"Exempt","2701 2749 N ELSTON AVE","60647",,"true","LOGAN SQUARE",,"56,563",,,,,,,,,,,,,,,,"41.93151197","-87.68673624","POINT (-87.68673624 41.93151197)","2021-175601"
"2021","229826","Waldorf Astoria Hotel","Not Submitted","11 E Walton St","60611","0.0","false","NEAR NORTH SIDE","Hotel","310,516","2006","1",,,,,,,,,,,,,,"41.89977386","-87.62764315","POINT (-87.62764315 41.89977386)","2021-229826"
"2021","250045","Hyde Park Academy HS -CPS","Exempt","6220 S Stony Island Ave","60637",,"true","WOODLAWN","K-12 School","324,961","1911","1",,,,,,,,,,,,,,"41.78216916","-87.58726468","POINT (-87.58726468 41.78216916)","2021-250045"
"2021","251942","Lake Shore Hospitality Inc","Not Submitted","4900 S Lake Shore Dr","60615","0.0","false","KENWOOD",,"54,000",,,,,,,,,,,,,,,,"41.80590747","-87.58592666","POINT (-87.58592666 41.80590747)","2021-251942"
"2021","252085",,"Not Submitted","6850 S Crandon Ave","60649","0.0","false","SOUTH SHORE",,"230,116",,,,,,,,,,,,,,,,"41.77039918","-87.56990748","POINT (-87.56990748 41.77039918)","2021-252085"
"2021","255939","XS Tennis and Education Foundation","Not Submitted","5334 S State St","60609","0.0","false","WASHINGTON PARK",,"116,997",,,,,,,,,,,,,,,,"41.8083","-87.66875","POINT (-87.66875 41.8083)","2021-255939"
"2021","260184","Hampden Green Condominium Association","Submitted","2728 N HAMPDEN CT","60614","1.5","false","LINCOLN PARK","Multifamily Housing","170,000","1970","1",,"37","3,055,237.9","13,403,999.9","0","0",,"117.6","161.6","115.5","159.4","1,148.3","8.2","41.92201051","-87.65461957","POINT (-87.65461957 41.92201051)","2021-260184"
"2021","260129","Plumbers Local 130 UA","Submitted","1340 W Washington Blvd","60607","2.0","false","NEAR WEST SIDE","Office","159,626","1925","1",,,"2,544,590.1","3,510,620.1","0","0",,"118.4","211.4","125","216.7","549.9","10.8","41.88326409","-87.66151492","POINT (-87.66151492 41.88326409)","2021-260129"
"2021","260135",,"Not Submitted","309  W 23RD ST","60616","0.0","false","ARMOUR SQUARE",,"63,835",,,,,,,,,,,,,,,,"41.84550365","-87.63055693","POINT (-87.63055693 41.84550365)","2021-260135"
"2021","260149","Riverside Square & River's Edge/ 90033","Submitted","3145 S Ashland Ave","60608","4.0","false","MCKINLEY PARK","Supermarket/Grocery Store","74,495","1987","1",,"69","8,019,977.7","5,127,067.9","0","0",,"176.5","373.7","176.5","373.7","1,417.8","19","41.8365795","-87.66384491","POINT (-87.66384491 41.8365795)","2021-260149"
"2021","244791","(IL0669) - Chandler","Submitted","450 E Waterside Dr","60601","4.0","false","LOOP","Multifamily Housing","628,921","2007","1",,"61","12,050,982.7","23,409,626.6","0","0",,"74.4","122.4","78.1","125.3","2,964.6","6.2","41.88716277","-87.61536682","POINT (-87.61536682 41.88716277)","2021-244791"
"2021","113745","The Sexton Condominium Association","Submitted","360 W Illinois St","60654","4.0","false","NEAR NORTH SIDE","Multifamily Housing","449,107","1915","1",,"97","8,029,855.4","4,577,299.5","0","0",,"32.2","69.7","32.4","68.2","1,390","3.6","41.89075805","-87.63753056","POINT (-87.63753056 41.89075805)","2021-113745"
"2021","101343","The Resurrection Project - Casa Morelos","Submitted","2015  S MORGAN ST","60608","4.0","false","LOWER WEST SIDE","Multifamily Housing","64,644","2009","1",,"90","1,101,240.1","1,992,554","0","0",,"56.9","95.1","58.8","95.8","263.1","4.8","41.84915346","-87.67089596","POINT (-87.67089596 41.84915346)","2021-101343"
"2021","253966","Greenview Place SLF","Submitted","1501 W Melrose St","60657","4.0","false","LAKE VIEW","Senior Living Community","130,428","2009","1",,"67","2,990,656.6","3,488,389.8","0","0",,"77.8","144.5","82","149.8","612.4","7.4","41.93985627","-87.65846293","POINT (-87.65846293 41.93985627)","2021-253966"
"2021","160211","633 N St. Clair","Submitted","633 N St Clair St","60611","4.0","false","NEAR NORTH SIDE","Office","632,163","1991","1",,"94","18,318,604.9","123,162.3","0","0",,"29.2","81.3","29.2","81.3","2,622.9","4.1","41.893497","-87.622686","POINT (-87.622686 41.893497)","2021-160211"
"2021","173811","Park Harbor Condominium Association","Submitted","3620 N. Pine Grove Ave","60613","4.0","false","LAKE VIEW","Multifamily Housing","102,874","1970","1",,"100","1,381,911.2","3,055,279.6","0","0",,"48.7","77.6","51","80","359.7","3.9","41.95402016","-87.6620278","POINT (-87.6620278 41.95402016)","2021-173811"
"2021","147816","6101 North Clark","Submitted","6101 6111 N CLARK ST","60660","4.0","false","EDGEWATER","Multifamily Housing","53,000","1928","1",,,"693,664.7","2,031,274.8","0","0",,"51.4","76.9","54","78.6","207","3.9","41.99090057","-87.66660744","POINT (-87.66660744 41.99090057)","2021-147816"
"2021","251880","Enrico Tonti Elementary School","Submitted","5815 S Homan Ave","60629","1.0","false","GAGE PARK","K-12 School","89,103","1928","3",,"26","3,055,820","4,545,240","0","0",,"85.3","149.6","91.5","156.1","677.9","7.6","41.78740764","-87.70774371","POINT (-87.70774371 41.78740764)","2021-251880"
"2021","251599","Orozco Elementary -CPS","Not Submitted","1940 W 18th St","60608","0.0","false","LOWER WEST SIDE","K-12 School","107,722","1999","1",,,,,,,,,,,,,,"41.85797637","-87.67512452","POINT (-87.67512452 41.85797637)","2021-251599"
"2021","172772","Manhattan Building Condominium","Submitted","423 439 S DEARBORN ST","60605","1.0","false","LOOP","Multifamily Housing","121,000","1891","1",,"10","8,082,059","0","0","0",,"66.8","187","70.1","196.4","1,154.3","9.5","41.86863212","-87.62730687","POINT (-87.62730687 41.86863212)","2021-172772"
"2021","172103","21 East Chestnut Condominium Association","Submitted","21  E CHESTNUT ST","60611","1.0","false","NEAR NORTH SIDE","Multifamily Housing","122,400","1962","1",,"16","3,813,803.9","10,332,699.7","0","0",,"115.6","175.9","124.1","184.9","1,093.5","8.9","41.89579275","-87.62247957","POINT (-87.62247957 41.89579275)","2021-172103"
"2021","251402","Dett -CPS","Exempt","2306 W Maypole Ave","60612",,"true","NEAR WEST SIDE","K-12 School","61,600","1961","1",,,,,,,,,,,,,,"41.88416052","-87.68478473","POINT (-87.68478473 41.88416052)","2021-251402"
"2021","120347","1033 Van Buren","Submitted","1033 W VAN BUREN ST","60607","4.0","false","NEAR WEST SIDE","Office","82,712","1905","1",,"100","327,374.8","1,361,469","0","0",,"20.4","28.4","22.4","30.5","119.1","1.4","41.87626485","-87.65305417","POINT (-87.65305417 41.87626485)","2021-120347"
"2021","175857","Lake Street Lofts LLC","Submitted","900 910 912 W Lake St & 212 N Peoria St","60607","4.0","false","NEAR WEST SIDE","Multifamily Housing","126,000","1886","1",,"99","1,999,277.8","1,704,904.3","0","0",,"34.3","68.4","35.4","68.7","376.1","3.5","41.87399385","-87.651678","POINT (-87.651678 41.87399385)","2021-175857"
"2021","160277","208 S La Salle Whole Building","Submitted","208 S LaSalle St","60604","3.5","false","LOOP","Hotel","907,563","1911","1",,"54","32,212,125.6","44,031,717.8","0","23,062,396.1",,"109.4","173.4","111","175.4","8,154.9","9","41.87908631","-87.63302012","POINT (-87.63302012 41.87908631)","2021-160277"
"2021","242633","530 North Lake Shore Drive","Submitted","530 N Lake Shore Dr","60611","4.0","false","NEAR NORTH SIDE","Multifamily Housing","650,925","2003","1",,"91","7,989,218.5","20,903,799.1","0","0",,"56.2","86.2","60.4","90.1","2,251.4","4.4","41.89211944","-87.61494973","POINT (-87.61494973 41.89211944)","2021-242633"
"2021","161150","1104 S Wabash","Submitted","1104 S Wabash Ave","60605","3.0","false","LOOP","College/University","166,094","1960","0",,,"6,110,796.5","4,169,879.6","0","0",,"61.9","129.4","65.3","132.9","1,094.3","6.6","41.8690082","-87.62636383","POINT (-87.62636383 41.8690082)","2021-161150"
"2021","113587","(IL584) - 1240 Lake Shore Drive","Submitted","1240  N LAKE SHORE DR","60610","1.0","false","NEAR NORTH SIDE","Multifamily Housing","160,528","1970","1",,"13","5,863,750.6","5,781,202.2","0","0",,"76.9","148.4","80.9","154.7","1,144.6","7.6","41.9037528","-87.63558845","POINT (-87.63558845 41.9037528)","2021-113587"
"2021","251580","Gillespie Elementary -CPS","Exempt","9301 S State St","60619",,"true","ROSELAND","K-12 School","91,300","1962","1",,,,,,,,,,,,,,"41.72471299","-87.62320762","POINT (-87.62320762 41.72471299)","2021-251580"
"2021","146136","Reside on Barry","Submitted","533 549 W BARRY AVE","60657","3.0","false","LAKE VIEW","Multifamily Housing","113,088","1966","1",,"43","3,706,946.9","6,681,891.3","0","0",,"91.9","153.8","96.9","157.6","884.4","7.8","41.9398511","-87.65844752","POINT (-87.65844752 41.9398511)","2021-146136"
"2021","165924","Lincoln Park Plaza","Submitted","600 W Diversey Pkwy","60614","2.5","false","LAKE VIEW","Multifamily Housing","328,617","1982","1",,"53","6,474,703.3","18,077,916.3","0","0",,"90.8","137.3","96.1","141.5","1,885","7","41.93284849","-87.64381155","POINT (-87.64381155 41.93284849)","2021-165924"
"2021","103682",,"Not Submitted","4624  S ELLIS AVE","60653","0.0","false","KENWOOD",,"100,332",,,,,,,,,,,,,,,,"41.82021138","-87.61246867","POINT (-87.61246867 41.82021138)","2021-103682"
"2021","251723","James Shields Middle School","Submitted","2611 W 48th St","60632","2.0","false","BRIGHTON PARK","K-12 School","95,265","2012","1",,"48","3,122,652.2","2,381,370","0","0",,"57.8","118","60.1","119.4","572.5","6","41.806552","-87.689787","POINT (-87.689787 41.806552)","2021-251723"
"2021","160354","Asbury Plaza Venture LLLP","Submitted","750 N Dearborn St","60654","2.0","false","NEAR NORTH SIDE","Multifamily Housing","431,149","1981","1",,"47","7,866,168.1","25,526,062","0","0",,"93.5","136.8","101.9","145","2,479.3","6.9","41.896027","-87.629782","POINT (-87.629782 41.896027)","2021-160354"
"2021","101755","Harris Bank Building","Submitted","115 S LaSalle St","60603","2.5","false","LOOP","Office","1,526,102","1974","1",,"53","64,870,752.4","85,834,798.1","0","0",,"98.8","178.1","102.3","181.8","13,824.4","9.1","41.88031326","-87.63191186","POINT (-87.63191186 41.88031326)","2021-101755"
"2021","252037","Ratner Athletics Center","Submitted","5530 S Ellis Ave","60637","2.0","false","HYDE PARK","Fitness Center/Health Club/Gym","168,984","2003","1",,,"10,960,531.4","0","19,336,257.1","4,441,572",,"205.6","343.2","206.4","345.2","3,083.4","18.2","41.794456","-87.601381","POINT (-87.601381 41.794456)","2021-252037"
"2021","175542","3260 North Lake Shore","Submitted","3260  N LAKE SHORE DR","60657","4.0","false","LAKE VIEW","Multifamily Housing","281,528","1928","1",,"86","2,787,218.4","14,463,521.2","0","0",,"66.6","88.8","72.6","93.8","1,166.3","4.5","41.9398511","-87.65844752","POINT (-87.65844752 41.9398511)","2021-175542"
"2021","158743","Buena Pointe Condominium Association","Submitted","4344 4360 N BROADWAY","60613","3.0","false","UPTOWN","Multifamily Housing","149,524","2004","1",,"62","3,076,848.5","7,066,575","0","0",,"67.8","107.2","72","110.4","814.8","5.4","41.96138688","-87.65532001","POINT (-87.65532001 41.96138688)","2021-158743"
"2021","158422","600 Fulton Owner, LLC","Submitted","600 W Fulton St","60661","2.5","false","NEAR WEST SIDE","Office","236,216","1901","1",,"55","14,592,851","0","0","0",,"61.8","173","63.5","177.9","2,084.2","8.8","41.88716166","-87.64324873","POINT (-87.64324873 41.88716166)","2021-158422"
"2021","250176","O'Hare Building 804 (Aviation Administration Building)","Submitted","10510 W Zemke Rd","60666","2.0","false","OHARE","Office","387,041","1943","1",,"41","10,159,840.7","5,611,220.1","0","0",,"95","206.8","97.8","206.2","1,749.1","10.5","41.99489655","-87.88775165","POINT (-87.88775165 41.99489655)","2021-250176"
"2021","251219","555 Cornelia (251219)","Submitted","555 W Cornelia Ave","60657","4.0","false","LAKE VIEW","Multifamily Housing","250,200","1961","1",,"96","1,584,135.6","13,826,466.9","0","0",,"69.8","85.8","76.7","93.1","960.6","4.4","41.94580944","-87.64408989","POINT (-87.64408989 41.94580944)","2021-251219"
"2021","254025","Englewood","Submitted","901 W 63rd St","60621","3.5","false","Englewood","Multifamily Housing","62,800","2010","1",,"80","2,207,931.5","1,233,428.2","0","0",,"54.8","119.1","56.6","121.5","380.9","6.1","41.7761103","-87.6399","POINT (-87.6399 41.7761103)","2021-254025"
"2021","256490",,"Submitted","5427 N Broadway St","60640","0.0","false","EDGEWATER",,"93,960",,,,,"0","0","0","0",,,,,,,,"41.97459","-87.66273","POINT (-87.66273 41.97459)","2021-256490"
"2021","118695","260-Senior Suites of Bridgeport","Submitted","2825  S HALSTED","60608","3.0","false","BRIDGEPORT","Senior Living Community","69,455","2005","1",,"67","1,973,620.2","3,754,999.9","0","0",,"82.5","136.3","86.8","139.3","481.3","6.9","41.84915346","-87.67089596","POINT (-87.67089596 41.84915346)","2021-118695"
"2021","251255","Tower Park Residences: 1235 South Prairie Avenue","Submitted","1235 S Prairie Ave","60605","3.5","false","NEAR SOUTH SIDE","Multifamily Housing","605,856","2006","1",,"77","10,170,312.2","25,227,300.3","0","0",,"58.4","90.7","62.4","94.2","2,792.5","4.6","41.86619413","-87.62121604","POINT (-87.62121604 41.86619413)","2021-251255"
"2021","251250","Lincoln Park Villas","Submitted","1920 N Clark St","60614","0.0","false","LINCOLN PARK",,"82,955",,,,,"0","0","0","0",,,,,,,,"41.91720134","-87.63571887","POINT (-87.63571887 41.91720134)","2021-251250"
"2021","253946","Lakeview Pointe Condominium Association, Inc.","Submitted","7736 7772 N Sheridan Rd","60626","4.0","false","ROGERS PARK","Multifamily Housing","80,000","2003","1",,"86","1,608,660.1","2,706,485.4","0","0",,"53.9","91.8","56.3","92.8","373.5","4.7","42.01036185","-87.66829765","POINT (-87.66829765 42.01036185)","2021-253946"
"2021","243199","Montgomery on Superior Condominium Association","Submitted","500 W Superior St","60654","1.0","false","NEAR NORTH SIDE","Multifamily Housing","649,737","2005","1",,"11","15,585,401.8","32,202,499.3","0","0",,"118.5","192.1","127.1","201.1","3,936.4","9.8","41.89587403","-87.64226427","POINT (-87.64226427 41.89587403)","2021-243199"
"2021","243929","(IL1074) ParkShore Condominium","Submitted","195 N Harbor Dr","60601","2.0","false","LOOP","Multifamily Housing","1,122,828","1991","1",,"46","32,300,445.2","22,092,652.3","0","0",,"53.9","112.5","55.5","114.2","5,786.8","5.7","41.88566808","-87.61471363","POINT (-87.61471363 41.88566808)","2021-243929"
"2021","165269","The Selfhelp Home, Inc.","Submitted","908 920 W ARGYLE ST","60640","1.0","false","UPTOWN","Senior Living Community","147,129","1962","1",,"7","10,911,064.2","4,619,300","0","0",,"105.6","240.6","110","249.3","1,803.7","12.3","41.97223008","-87.6645957","POINT (-87.6645957 41.97223008)","2021-165269"
"2021","239042","400 North LaSalle Condominium Association","Submitted","400 N LaSalle St","60654","3.0","false","NEAR NORTH SIDE","Multifamily Housing","597,736","2003","1",,"61","14,284,123","22,239,779.7","0","0",,"61.1","106","64.6","108.5","3,221.4","5.4","41.88962593","-87.63339019","POINT (-87.63339019 41.88962593)","2021-239042"
"2021","173708","2756-64 N. Pine Grove Ave.","Submitted","2756 2760 N PINE GROVE AVE","60614","2.0","false","LINCOLN PARK","Multifamily Housing","133,560","1925","1",,"45","1,984,223.7","9,968,102.9","0","0",,"89.5","120","95.4","124.3","812.9","6.1","41.92201051","-87.65461957","POINT (-87.65461957 41.92201051)","2021-173708"
"2021","251762","Franz Peter Schubert Elementary School","Submitted","2727 N Long Ave","60639","2.5","false","BELMONT CRAGIN","K-12 School","101,364","1930","4",,"59","1,616,821.2","5,884,260.1","0","0",,"74","105.6","81.7","114.8","543.5","5.4","41.93000505","-87.76055407","POINT (-87.76055407 41.93000505)","2021-251762"
"2021","241873","The Columbian Condominium Association","Submitted","1160 S Michigan Ave","60605","3.0","false","LOOP","Multifamily Housing","541,521","2007","1",,"63","10,808,755.4","19,446,579.2","0","0",,"65.2","109.2","68.5","110.9","2,576.7","5.6","41.86776111","-87.62464689","POINT (-87.62464689 41.86776111)","2021-241873"
"2021","175263","1725 West North Avenue Condominium","Submitted","1725  W NORTH AVE","60622","4.0","false","WEST TOWN","Multifamily Housing","55,892","1916","1",,"84","888,813.4","1,043,441.9","0","0",,"40.7","75.4","40.7","75.4","182.4","3.8","41.90225377","-87.68447845","POINT (-87.68447845 41.90225377)","2021-175263"
"2021","256615","Marquee at Block 37","Submitted","25 West Randolph Street",,"2.5","false",,"Multifamily Housing","590,021","2016","1",,"58","18,500,007.3","22,157,536.2","0","0",,"68.9","127.2","71.2","128.5","3,819.2","6.5","41.88425","-87.63245","POINT (-87.63245 41.88425)","2021-256615"
"2021","235739","1000 Condominium Association","Submitted","1000 N Lake Shore Plz","60611","4.0","false","NEAR NORTH SIDE","Multifamily Housing","450,036","1964","1",,"82","7,542,577.4","0","0","0",,"62.8","99",,,"2,007.6","5","41.900978","-87.624275","POINT (-87.624275 41.900978)","2021-235739"
"2021","250118","Humboldt Park Health","Submitted","1044 N Francisco Ave","60622","2.5","false","WEST TOWN","Hospital (General Medical & Surgical)","312,898","1917","2",,"51","35,409,974.8","28,610,401.1","0","0",,"204.6","412.9","204.4","408.2","6,577.1","21","41.899824","-87.699299","POINT (-87.699299 41.899824)","2021-250118"
"2021","105615","Surf III LLC","Submitted","426 W SURF ST","60657","4.0","false","LAKE VIEW","Multifamily Housing","89,650","1928","1",,"83","2,806,775","1,262,082.6","0","0",,"45.4","102.4","46.3","104.2","467.9","5.2","41.9398511","-87.65844752","POINT (-87.65844752 41.9398511)","2021-105615"
"2021","172592","Hall Plaza West","Not Submitted","4628 - 4650 W Diversey Ave","60639","0.0","false","HERMOSA","Strip Mall","66,836","1957","1",,,,,,,,,,,,,,"41.9316219","-87.74259904","POINT (-87.74259904 41.9316219)","2021-172592"
"2021","157287","Midwest Orthopedics at Rush","Submitted","1611 W HARRISON ST","60612","4.0","false","NEAR WEST SIDE","Medical Office","212,511","2009","1",,"77","8,225,325.5","0","14,865,300","0",,"108.7","192.5","106.6","186.9","2,161.8","10.2","41.87351299","-87.66703729","POINT (-87.66703729 41.87351299)","2021-157287"
"2021","103634","Lewis & O'Malley","Submitted","25 E Jackson Blvd","60604","4.0","false","LOOP","College/University","380,371","1928","1",,,"12,170,327.6","14,372,992.6","0","0",,"69.8","129.3","74.6","134.3","2,501.7","6.6","41.878202","-87.626867","POINT (-87.626867 41.878202)","2021-103634"
"2021","174260","Uptown Bank Building","Exempt","4753 N Broadway St","60640",,"true","UPTOWN","Office","101,422","1924","1",,,,,,,,,,,,,,"41.96873677","-87.65917186","POINT (-87.65917186 41.96873677)","2021-174260"
"2021","256728","Alta Grand Central (lt027)","Submitted","221 W Harrison St","60607","4.0","false",,"Multifamily Housing","262,020","2020","1",,"94","3,798,344.2","12,337,435.5","0","0",,"68.1","99.5",,,"1,197.8","5.1","41.88321","-87.65877","POINT (-87.65877 41.88321)","2021-256728"
"2021","254372","Lawndale Christian Health and Fitness Center","Submitted","3750 W OGDEN AVE","60623",,"true","North Lawndale","Mixed Use Property","64,779","2012","1",,,"2,937,247.2","580,580.2","0","0",,"54.3","136.4","54.3","136.4","450.4","7","41.85793904","-87.71522054","POINT (-87.71522054 41.85793904)","2021-254372"
"2021","251355","Evers Elementary, Medgar -CPS","Exempt","9811 S Lowe Ave","60628",,"true","WASHINGTON HEIGHTS","K-12 School","52,968","2014","1",,,,,,,,,,,,,,"41.71565288","-87.63896474","POINT (-87.63896474 41.71565288)","2021-251355"
"2021","252021","CICS Basil","Submitted","1816 W Garfield Blvd","60609","3.5","false","NEW CITY","K-12 School","57,350","1956","1",,"71","1,462,557.2","2,442,300.1","0","0",,"68.1","116.1","73.8","122.2","338.6","5.9","41.794164","-87.67006603","POINT (-87.67006603 41.794164)","2021-252021"
"2021","159425","Lawless Gardens","Submitted","3510 S RHODES AVE","60653","0.0","false","DOUGLAS",,"740,173",,,,,"0","0","0","0",,,,,,,,"41.83083707","-87.61542242","POINT (-87.61542242 41.83083707)","2021-159425"
"2021","124911","Point at Clark","Submitted","3131 N Clark St","60657","3.0","false","LAKE VIEW","Strip Mall","162,490","1995","1",,,"7,603,099.5","0","0","0",,"79.7","223","81.9","229.5","1,085.9","11.4","41.93916606","-87.6496288","POINT (-87.6496288 41.93916606)","2021-124911"
"2021","131633","Fulton-Loomis-Carroll Condominium Association","Submitted","1400 W FULTON ST","60607","4.0","false","NEAR WEST SIDE","Office","62,555","1907","1",,"98","233,128.3","2,137,763.2","0","0",,"37.9","46.3","41.7","50","146.8","2.3","41.88660859","-87.66258804","POINT (-87.66258804 41.88660859)","2021-131633"
"2021","252073","118 S Clinton","Submitted","118 S Clinton St","60661","2.5","false","NEAR WEST SIDE","Office","78,751","1910","1",,"34","4,650,324","0","0","0",,"59.1","165.3","59.3","166","664.2","8.4","41.87993535","-87.64144916","POINT (-87.64144916 41.87993535)","2021-252073"
"2021","256793",,"Not Submitted","4346 N HONORE ST","60613","0.0","false","North Center",,"50,000",,,,,,,,,,,,,,,,"41.954025","-87.670265","POINT (-87.670265 41.954025)","2021-256793"
"2021","103604","525 West Monroe","Submitted","525 W Monroe St","60661","3.5","false","NEAR WEST SIDE","Office","1,073,992","1983","1",,"78","43,136,858.3","668,274.1","0","0",,"42.6","118.1","43.6","120.8","6,197.1","6","41.880543","-87.640541","POINT (-87.640541 41.880543)","2021-103604"
"2021","113573","(IL218) - 1540 Lake Shore Dr","Submitted","1534 1542 N LAKE SHORE DR","60610","4.0","false","NEAR NORTH SIDE","Multifamily Housing","138,636","1929","1",,"96","2,046,606.3","6,297,280.1","0","0",,"60.2","89","65.4","93.8","626.8","4.5","41.9037528","-87.63558845","POINT (-87.63558845 41.9037528)","2021-113573"
"2021","147565","Lakeside Lofts","Not Submitted","2025  S INDIANA AVE","60616","0.0","false","NEAR SOUTH SIDE",,"101,333",,,,,,,,,,,,,,,,"41.84550365","-87.63055693","POINT (-87.63055693 41.84550365)","2021-147565"
"2021","102239","Lake Park Crescent Associates 1, LP","Submitted","1061  E 41ST PL","60653","3.5","false","OAKLAND","Multifamily Housing","137,870","2004","1",,"54","1,834,216.5","8,164,000.1","0","0",,"93.4","128.1","100","134.2","695.6","6.5","41.82021138","-87.61246867","POINT (-87.61246867 41.82021138)","2021-102239"
"2021","251414","James Wadsworth Elementary School","Submitted","6650 S Ellis Ave","60637","3.0","false","WOODLAWN","K-12 School","64,558","1963","1",,"46","1,344,307.5","3,833,870.2","0","0",,"80.2","120.7","87.2","128","395.6","6.1","41.77374217","-87.60122846","POINT (-87.60122846 41.77374217)","2021-251414"
"2021","256608","Laystrom Manufacturing Company","Not Submitted","3900 W Palmer St",,"0.0","false",,,"76,600",,,,,,,,,,,,,,,,"41.88425","-87.63245","POINT (-87.63245 41.88425)","2021-256608"
"2021","175905","HI Chicago","Submitted","24 E Congress Pkwy","60605","2.5","false","LOOP","Hotel","100,535","1880","1",,"33","6,568,209.2","3,121,325","0","0",,"96.4","215.5","99.2","218.5","1,103.9","11","41.87588999","-87.62653046","POINT (-87.62653046 41.87588999)","2021-175905"
"2021","130379",,"Submitted","444 N WABASH AVE","60611","0.0","false","NEAR NORTH SIDE",,"57,400",,,,,"0","0","0","0",,,,,,,,"41.89014125","-87.62668588","POINT (-87.62668588 41.89014125)","2021-130379"
"2021","175679","240 N. Ashland","Submitted","240 N Ashland Ave","60607","4.0","false","NEAR WEST SIDE","Office","81,887","1900","1",,"98","1,130,757.3","327,600","0","0",,"17.8","42.9","18.5","43.5","178.9","2.2","41.88655482","-87.66760406","POINT (-87.66760406 41.88655482)","2021-175679"
"2021","160179","The Kimpton Gray Hotel","Submitted","39 S LaSalle St","60603","4.0","false","LOOP","Hotel","239,678","2016","1",,"82","9,126,895.3","7,453,619.6","0","0",,"69.2","139.3","71.3","141.5","1,699.5","7.1","41.88104029","-87.63208087","POINT (-87.63208087 41.88104029)","2021-160179"
"2021","251771","1333 North Kingsbury","Submitted","1333 N Kingsbury","60642","1.5","false","NEAR NORTH SIDE","Office","126,727","1961","1",,"38","4,136,626.9","9,279,622.2","0","0",,"128.1","203.7","132.8","208.6","1,083.7","10.3","41.9060185","-87.64946369","POINT (-87.64946369 41.9060185)","2021-251771"
"2021","251563","Lazaro Cardenas Elementary School (South)","Submitted","2524 S Central Ave","60623","4.0","false","AUSTIN","K-12 School","84,116","1912","2",,"90","1,172,161.9","2,212,130.2","0","0",,"40.2","66.6","43.4","69.9","284.9","3.4","41.869894","-87.764317","POINT (-87.764317 41.869894)","2021-251563"
"2021","106102","The Regent Condominium Association","Submitted","190  E WALTON PL","60611","4.0","false","NEAR NORTH SIDE","Multifamily Housing","131,500","1996","1",,"100","721,395.7","3,988,882.8","0","0",,"50.1","66","52.9","68.6","314.9","3.4","41.89579275","-87.62247957","POINT (-87.62247957 41.89579275)","2021-106102"
"2021","175728","808-12 Junior Terrace LLC","Submitted","808 812 W JUNIOR TER","60613","3.0","false","UPTOWN","Multifamily Housing","76,690","1920","1",,"44","2,901,954.1","2,431,620","0","0",,"69.5","139.2","69.5","139.2","543.6","7.1","41.95402016","-87.6620278","POINT (-87.6620278 41.95402016)","2021-175728"
"2021","251455","Richards Career Academy HS -CPS","Exempt","5009 S Laflin St","60609",,"true","NEW CITY","K-12 School","103,015","1907","1",,,,,,,,,,,,,,"41.80286625","-87.66205861","POINT (-87.66205861 41.80286625)","2021-251455"
"2021","251375","Ashe Elementary -CPS","Exempt","8507 S Ingleside","60619",,"true","CHATHAM","K-12 School","55,335","1960","1",,,,,,,,,,,,,,"41.740171","-87.601226","POINT (-87.601226 41.740171)","2021-251375"
"2021","251433","Walter L Newberry Math & Science Academy ES","Submitted","708 W Willow St","60614","3.5","false","LINCOLN PARK","K-12 School","75,176","1937","2",,"72","1,110,127","3,566,300.1","0","0",,"62.2","91.2","68.4","97.6","348","4.6","41.913892","-87.646358","POINT (-87.646358 41.913892)","2021-251433"
"2021","156840","One Superior Place - CO (np52)","Submitted","1 W Superior St","60654","4.0","false","NEAR NORTH SIDE","Multifamily Housing","706,415","1999","1",,"94","18,885,188","10,118,685","0","0",,"44.1","96.6","44.1","96.6","3,234.8","4.9","41.89526506","-87.62898937","POINT (-87.62898937 41.89526506)","2021-156840"
"2021","135080","537 S. Dearborn St.","Submitted","537  S DEARBORN ST","60605","3.5","false","LOOP","Multifamily Housing","78,000","1892","1",,"74","2,298,237.9","1,179,592.2","0","0",,"44.6","98.4","45.8","99.8","390.9","5","41.86863212","-87.62730687","POINT (-87.62730687 41.86863212)","2021-135080"
"2021","234374","(IL554-H) - Kinzie Station, Hi-Rise","Submitted","330 N Jefferson Ct","60661","2.0","false","NEAR WEST SIDE","Multifamily Housing","249,616","2000","1",,"22","6,784,182","14,361,538.1","0","0",,"94.1","151.7","101.2","157.5","1,731.8","7.7","41.88774849","-87.64394791","POINT (-87.64394791 41.88774849)","2021-234374"
"2021","105488","5600 N. Sheridan","Submitted","5600  N SHERIDAN RD","60660","1.0","false","EDGEWATER","Multifamily Housing","115,973","1963","1",,"10","2,770,230.1","11,940,500.1","0","0",,"147.6","203.6","161.2","216.1","1,029.9","10.3","41.99090057","-87.66660744","POINT (-87.66660744 41.99090057)","2021-105488"
"2021","251526","John Barry Elementary School","Submitted","2828 N Kilbourn Ave","60641","1.5","false","HERMOSA","K-12 School","78,700","1927","2",,"35","1,139,459.9","6,929,750.2","0","0",,"102.5","133","115.1","146.2","530.8","6.7","41.93235271","-87.74015991","POINT (-87.74015991 41.93235271)","2021-251526"
"2021","256765",,"Not Submitted","2750 N ELSTON AVE","60647","0.0","false","Logan Square",,"50,000",,,,,,,,,,,,,,,,"41.921025","-87.691375","POINT (-87.691375 41.921025)","2021-256765"
"2021","101998","TransUnion LLC","Submitted","555 W Adams St","60661","4.0","false","NEAR WEST SIDE","Office","312,000","1990","1",,"100","8,915,402.5","0","0","0",,"28.6","80","28.6","80","1,273.4","4.1","41.87897953","-87.64154809","POINT (-87.64154809 41.87897953)","2021-101998"
"2021","251509","Richard J Daley Elementary Academy","Submitted","5024 S Wolcott Ave","60609","1.0","false","NEW CITY","K-12 School","73,350","1996","1",,"12","2,793,137.2","5,207,570.4","0","0",,"109.1","181.2","117.2","188.8","675.5","9.2","41.80242628","-87.67247949","POINT (-87.67247949 41.80242628)","2021-251509"
"2021","134421","Marketplace At Six Corners","Submitted","4612 - 4730 W Irving Park Rd","60641","4.0","false","PORTAGE PARK","Other - Mall","77,966","1997","1",,,"162,859.1","1,067,347.7","0","0",,"15.8","20.2","18.2","22.9","80","1","41.95551563","-87.74491933","POINT (-87.74491933 41.95551563)","2021-134421"
"2021","100001","Ascension SMEMC St Elizabeth Campus","Submitted","1431 N Claremont Ave","60622",,"true","WEST TOWN","Mixed Use Property","505,417","1928","3",,,"18,651,203.3","34,208,710.8","0","0",,"171","285.2","175.3","286.7","4,480.9","14.5","41.90743588","-87.68538017","POINT (-87.68538017 41.90743588)","2021-100001"
"2021","158630","(IL0466) - Erie Centre Condo","Submitted","375 425 W Erie St","60654","1.0","false","NEAR NORTH SIDE","Multifamily Housing","428,000","1999","2",,"23","20,620,695","2,595,164.3","0","0",,"57.6","149.9","58.3","150.7","3,083","7.6","41.89369142","-87.63934318","POINT (-87.63934318 41.89369142)","2021-158630"
"2021","251245","3800 N. Lake Shore Drive","Submitted","3800 Lake Shore Dr","60613","0.0","false","LAKE VIEW","Multifamily Housing","249,095","1925","1",,,"0","0","0","0",,,,,,,,"41.95273621","-87.64559131","POINT (-87.64559131 41.95273621)","2021-251245"
"2021","119347","2101 S Wabash Ave","Submitted","2101 S WABASH AVE","60616","2.5","false","NEAR SOUTH SIDE","Multifamily Housing","31,672","1900","1",,"58","1,313,551.4","0","0","0",,"41.5","116.1","41.2","115.3","187.6","5.9","41.85408637","-87.62512419","POINT (-87.62512419 41.85408637)","2021-119347"
"2021","110254","(IL405) -110 W Superior","Submitted","110 W SUPERIOR ST","60654","4.0","false","NEAR NORTH SIDE","Multifamily Housing","345,904","2009","1",,"99","3,944,688.3","7,506,462.7","0","0",,"41.1","67.9","43.5","69.7","962.1","3.5","41.89158015","-87.63783734","POINT (-87.63783734 41.89158015)","2021-110254"
"2021","114339","Sheridan Point Condominiums","Submitted","6325  N SHERIDAN RD","60660","2.5","false","EDGEWATER","Multifamily Housing","186,552","1969","1",,"59","2,755,473.2","10,397,073.6","0","0",,"84.4","119.6","92.4","126.7","945.8","6.1","41.99090057","-87.66660744","POINT (-87.66660744 41.99090057)","2021-114339"
"2021","175521",,"Not Submitted","5460 5470 S HARPER AVE","60615","0.0","false","HYDE PARK",,"68,515",,,,,,,,,,,,,,,,"41.80224043","-87.60332678","POINT (-87.60332678 41.80224043)","2021-175521"
"2021","159982","Mahalia Jackson Apt","Not Submitted","9141 - 9177 S South Chicago Ave","60617","0.0","false","SOUTH CHICAGO","Multifamily Housing","103,330","1974","2",,,,,,,,,,,,,,"41.72901449","-87.55425891","POINT (-87.55425891 41.72901449)","2021-159982"
"2021","229016","Fulton House Condominium Association","Submitted","345-355 N Canal St","60606","3.5","false","NEAR WEST SIDE","Multifamily Housing","175,456","1900","1",,"56","7,926,366","0","0","0",,"45.2","126.5","47.8","133.9","1,132.1","6.5","41.88806221","-87.63991405","POINT (-87.63991405 41.88806221)","2021-229016"
"2021","227382","Drake Tower Apartments Inc.","Submitted","179 E LAKESHORE DR","60611","3.0","false","NEAR NORTH SIDE","Multifamily Housing","276,310","1928","1",,"46","4,625,064.9","378,275.8","13,463,116.2","0",,"75","119.9",,,"1,523.2","6.2","41.90042814","-87.62262826","POINT (-87.62262826 41.90042814)","2021-227382"
"2021","101551","METROPOLITIAN PIER AND EXPOSITION AUTHORITY","Submitted","301 Cermak Rd","60616","3.0","false","ARMOUR SQUARE","Convention Center","9,245,333","1971","10",,,"377,253,921.6","346,816,224.7","0","0",,"78.3","153.6","81.9","157.4","72,302.9","7.8","41.85284","-87.634931","POINT (-87.634931 41.85284)","2021-101551"
"2021","172529","One East 14th Place","Submitted","5 E 14th Pl","60605","4.0","false","NEAR SOUTH SIDE","Multifamily Housing","204,036","2000","1",,"88","3,812,944.1","4,053,390.2","0","0",,"50.7","96.2","52.2","97.3","759.9","4.9","41.86215282","-87.62699452","POINT (-87.62699452 41.86215282)","2021-172529"
"2021","250145","180 North Wabash LLC","Submitted","180 N Wabash Ave","60601","1.5","false","LOOP","Office","162,153","1919","1",,"33","9,529,009.7","8,375,340.9","0","0",,"110.4","218.8","114.5","221.7","1,805.8","11.1","41.88542351","-87.62666782","POINT (-87.62666782 41.88542351)","2021-250145"
"2021","172547",,"Exempt","2222 S MICHIGAN AVE","60616",,"true","NEAR SOUTH SIDE",,"103,900",,,,,,,,,,,,,,,,"41.85215031","-87.62464535","POINT (-87.62464535 41.85215031)","2021-172547"
"2021","157469","(IL0444) - VB 1224 Lofts CA","Submitted","1224 W Van Buren St","60607","2.5","false","NEAR WEST SIDE","Multifamily Housing","362,107","2007","1",,"57","5,994,321","15,914,964.5","0","0",,"73.2","112","77.4","114.3","1,701.5","5.7","41.87684325","-87.65816993","POINT (-87.65816993 41.87684325)","2021-157469"
"2021","254377","Cicero & George","Submitted","4800 W GEORGE ST","60641","4.0","false","Belmont Cragin","Multifamily Housing","76,764","2016","1",,"61","2,315,646.9","1,885,224.1","0","0",,"54.7","110.3","56.4","112","430.9","5.6","41.95364019","-87.7328657","POINT (-87.7328657 41.95364019)","2021-254377"
"2021","173874","The Denifer","Submitted","5400 5406 N KENMORE AVE","60640","3.5","false","EDGEWATER","Multifamily Housing","81,600","1990","1",,"71","879,622.5","5,649,999.8","0","0",,"80","102.9","87","109.8","425.7","5.2","41.97223008","-87.6645957","POINT (-87.6645957 41.97223008)","2021-173874"
"2021","105619","529 West Wellington","Submitted","521 541 W WELLINGTON AVE","60657","4.0","false","LAKE VIEW","Multifamily Housing","80,064","1925","1",,"81","799,525.8","3,977,083.6","0","0",,"59.7","80.1","63.4","82.8","325.4","4.1","41.9398511","-87.65844752","POINT (-87.65844752 41.9398511)","2021-105619"
"2021","103643","180 North LaSalle","Submitted","180 N LaSalle St","60601","3.5","false","LOOP","Office","859,786","1972","1",,"76","21,818,218.2","22,096,230.8","0","17,614,031.6",,"71.6","116.7","72.4","117.9","5,218.1","6.1","41.88538772","-87.63289117","POINT (-87.63289117 41.88538772)","2021-103643"
"2021","250102","Maria Diaz Martinez Apts","Not Submitted","2111 N Halsted St","60614","0.0","false","LINCOLN PARK","Multifamily Housing","133,953","1968","1",,,,,,,,,,,,,,"41.92026783","-87.64782227","POINT (-87.64782227 41.92026783)","2021-250102"
"2021","251282","1100 N. Dearborn","Submitted","1100 N Dearborn St","60610","2.0","false","NEAR NORTH SIDE","Multifamily Housing","179,090","1930","1",,"44","3,124,563.6","16,517,017.8","0","0",,"109.7","145.7","119.6","155","1,323.6","7.4","41.90201818","-87.63035975","POINT (-87.63035975 41.90201818)","2021-251282"
"2021","175740","Heartbreak Loftominium Association","Submitted","17  N LOOMIS ST","60607","3.0","false","NEAR WEST SIDE","Multifamily Housing","90,000","1915","1",,"68","1,186,937.2","3,971,543.3","0","0",,"57.3","83.3","60.5","85.1","380.5","4.2","41.87399385","-87.651678","POINT (-87.651678 41.87399385)","2021-175740"
"2021","159000","Harlan Comm Academy -CPS","Exempt","9652 S Michigan Ave","60628",,"true","ROSELAND","K-12 School","169,730","1957","1",,,,,,,,,,,,,,"41.71752186","-87.62130132","POINT (-87.62130132 41.71752186)","2021-159000"
"2021","242148","(IL337) - Museum Park Place South","Submitted","1841 S Calumet Ave","60616","2.0","false","NEAR SOUTH SIDE","Multifamily Housing","407,616","2006","1",,"46","10,207,943.1","16,349,731.8","0","0",,"88.2","151.9","93.9","157.9","2,326.4","7.7","41.85728279","-87.61931697","POINT (-87.61931697 41.85728279)","2021-242148"
"2021","260078",,"Not Submitted","1626  W 87TH ST","60620","0.0","false","AUBURN GRESHAM",,"74,165",,,,,,,,,,,,,,,,"41.74023286","-87.65352897","POINT (-87.65352897 41.74023286)","2021-260078"
"2021","175185","Jeffery Building Inc.","Submitted","1949 1959 E 71ST ST","60649","4.0","false","SOUTH SHORE","Multifamily Housing","52,193","1935","1",,"61","820,965.4","3,451,440","0","0",,"81.9","113.5","86.4","117.5","300.6","5.8","41.76259226","-87.57231648","POINT (-87.57231648 41.76259226)","2021-175185"
"2021","254513","Xavier (xv01)","Submitted","625 W Division St","60610","3.5","false","Near North Side","Multifamily Housing","280,827","2015","1",,"72","7,180,185.5","6,180,442","0","0",,"57.4","114.3","59.6","116.6","1,353.8","5.8","41.90412113","-87.63142484","POINT (-87.63142484 41.90412113)","2021-254513"
"2021","104095","4600-4650 W. Diversey","Submitted","4600 4650 W Diversey Ave","60639","4.0","false","HERMOSA","Strip Mall","53,267","1957","1",,,"416,464.6","1,731,484.6","0","0",,"40.3","56",,,"151.4","2.8","41.93162302","-87.74252593","POINT (-87.74252593 41.93162302)","2021-104095"
"2021","101835","Accesso 230 W Monroe","Submitted","230 W Monroe","60606","4.0","false","LOOP","Office","677,385","1971","1",,"69","23,869,082.7","28,959,598.6","0","0",,"78","143.6","81","146.4","4,947.3","7.3","41.88100752","-87.63490659","POINT (-87.63490659 41.88100752)","2021-101835"
"2021","159187","Midway Gardens Apartments","Not Submitted","727 E 60TH ST","60637","0.0","false","WOODLAWN",,"305,742",,,,,,,,,,,,,,,,"41.78555297","-87.60744454","POINT (-87.60744454 41.78555297)","2021-159187"
"2021","106113","725 W Sheridan Condominium Association, Inc.","Submitted","721 729 W SHERIDAN RD","60613","4.0","false","LAKE VIEW","Multifamily Housing","67,346","1920","1",,"91","630,887.7","3,483,855","0","0",,"78.6","103.6","84.8","110.1","275.2","5.3","41.95402016","-87.6620278","POINT (-87.6620278 41.95402016)","2021-106113"
"2021","158394","Michigan - 180 Property LLC","Submitted","180 N Michigan Ave","60601","2.5","false","LOOP","Office","231,521","1927","1",,"56","9,055,216","10,321,457.6","0","0",,"83.7","156.3","89","161.9","1,841.5","8","41.88552372","-87.62497458","POINT (-87.62497458 41.88552372)","2021-158394"
"2021","251222","2229 South Halsted","Submitted","2229 S Halsted St","60608","1.0","false","LOWER WEST SIDE","Office","140,445","1908","1",,"29","5,784,524","6,528.6","0","0",,"68.1","190.6","68.1","190.6","826.5","9.7","41.85175985","-87.64626343","POINT (-87.64626343 41.85175985)","2021-251222"
"2021","251470","Dett","Exempt","2101 W Monroe","60612",,"true","NEAR WEST SIDE","K-12 School","70,600","1961","1",,,,,,,,,,,,,,"41.87995","-87.679167","POINT (-87.679167 41.87995)","2021-251470"
"2021","111987","442 Wellington Cooperative Building Corporation","Submitted","442 444 W WELLINGTON AVE","60657","4.0","false","LAKE VIEW","Multifamily Housing","131,625","1928","1",,"100","1,504,692","5,287,080.8","0","0",,"51.6","74.2","56.1","78.1","495.7","3.8","41.9398511","-87.65844752","POINT (-87.65844752 41.9398511)","2021-111987"
"2021","252284","Amhurst Lofts","Submitted","2600 N Southport Ave","60614","3.5","false","LINCOLN PARK","Multifamily Housing","150,526","1920","1",,"76","1,632,273.5","5,195,458.6","0","0",,"61.8","90.7","65.3","92.7","509.1","4.6","41.92905985","-87.66340744","POINT (-87.66340744 41.92905985)","2021-252284"
"2021","118737","CHICAGO PETERSON AVE (2079)","Submitted","2112 W Peterson Ave","60659","3.0","false","WEST RIDGE","Retail Store","408,694","2006","1",,"70","8,050,010.1","5,857,700.4","0","0",,"86.8","179.1","90.4","180.9","1,460.9","9.1","41.99066763","-87.68218165","POINT (-87.68218165 41.99066763)","2021-118737"
"2021","254057","HAYMARKET CENTER","Submitted","932 W Washington Blvd","60607","3.0","false","Near West Side","Residential Care Facility","150,000","1890","1",,,"7,036,373.1","9,654,439.7","0","0",,"111.3","198.9","115","200.2","1,517.8","10.1","41.8742951","-87.65018","POINT (-87.65018 41.8742951)","2021-254057"
"2021","176020","Hyde Park Bank","Submitted","1515 - 1531 E 53rd St","60615","3.0","false","HYDE PARK","Office","158,000","1926","1",,,"2,793,759.2","8,338,302","0","0",,"70.5","104.9","76.9","111.7","841.9","5.3","41.7992525","-87.58844296","POINT (-87.58844296 41.7992525)","2021-176020"
"2021","140794","The Parc Orleans Condominium Association Inc","Submitted","1546  N ORLEANS ST","60610","4.0","false","NEAR NORTH SIDE","Multifamily Housing","159,623","2002","1",,"78","3,076,931.4","3,700,884.5","0","0",,"58.4","107.6","61.1","109.7","636","5.5","41.9037528","-87.63558845","POINT (-87.63558845 41.9037528)","2021-140794"
"2021","250056","Whitney M Young Magnet High School","Submitted","211 S Laflin St","60607","1.0","false","NEAR WEST SIDE","K-12 School","430,443","1975","3",,"3","26,119,870","37,123,716.8","0","0",,"146.9","260.5","156.9","271","5,702.4","13.2","41.87825891","-87.6636621","POINT (-87.6636621 41.87825891)","2021-250056"
"2021","243596","Imperial Towers Condominium","Submitted","4250 N Marine Dr","60613","0.0","false","UPTOWN","Multifamily Housing","1,256,710","1962","1",,,"0","0","0","0",,,,,,,,"41.96030097","-87.64752405","POINT (-87.64752405 41.96030097)","2021-243596"
"2021","252105","611 S. Wells Street Condo (The Vetro)","Submitted","611 S Wells St","60607","1.5","false","LOOP","Multifamily Housing","405,149","2007","1",,"31","12,941,535.2","7,598,245","0","0",,"70.8","152.4","73.6","157.3","2,252","7.8","41.8740597","-87.63330942","POINT (-87.63330942 41.8740597)","2021-252105"
"2021","172800","5110 S Kenwood","Submitted","5110  S KENWOOD AVE","60615","4.0","false","HYDE PARK","Multifamily Housing","55,932","1990","1",,"65","1,038,353.8","4,621,300.2","0","0",,"101.2","138.7","105.3","142.4","393.8","7","41.80224043","-87.60332678","POINT (-87.60332678 41.80224043)","2021-172800"
"2021","161053","Santa Clara Hall-ID# 161053","Submitted","1000 - 1008 W Loyola Ave","60626","4.0","false","ROGERS PARK","Residence Hall/Dormitory","61,053","1924","1",,"81","1,500,722.1","2,720,929.2","0","0",,"69.1","115.6","73.8","119.6","358.9","5.9","42.00188394","-87.65658968","POINT (-87.65658968 42.00188394)","2021-161053"
"2021","101713","Aon Center","Submitted","200 E Randolph St","60601","3.5","false","LOOP","Office","3,457,865","1972","1",,"77","82,280,448.2","76,821,702.6","0","63,680,135.9",,"69.8","115.6","69.7","115.7","19,200.1","6","41.88529085","-87.62152084","POINT (-87.62152084 41.88529085)","2021-101713"
"2021","242950","Park Place Chicago Condominium Association","Submitted","600 N KINGSBURY ST","60654","1.0","false","NEAR NORTH SIDE","Multifamily Housing","326,810","2002","1",,"14","5,973,419.1","15,823,283","0","8,496,587.9",,"126.1","170.9","126.5","172.3",,,"41.89286738","-87.64141169","POINT (-87.64141169 41.89286738)","2021-242950"
"2021","256411","8792","Submitted","303 E Chicago Ave","60611","2.0","false","NEAR NORTH SIDE","Laboratory","303,490","1925","1",,,"24,001,161.3","66,866,979.4","0","0",,"299.4","452.8","296.7","445.3","6,979.6","23","41.89837","-87.62281702","POINT (-87.62281702 41.89837)","2021-256411"
"2021","117024","(IL373) - Bucktown Park Condominium Association","Submitted","1830  N WINCHESTER AVE","60622","4.0","false","LOGAN SQUARE","Multifamily Housing","73,000","1994","1",,"100","376,129.3","0","0","0",,"5.5","15.3","5.4","15","53.7","0.8","41.90225377","-87.68447845","POINT (-87.68447845 41.90225377)","2021-117024"
"2021","159936","7130 Cyril Court Apartments","Submitted","7130 S CYRIL CT","60649","3.5","false","SOUTH SHORE","Multifamily Housing","81,140","1929","1",,"52","1,175,942.4","7,032,020.1","0","0",,"101.2","131.6","110.7","141.6","541.5","6.7","41.76506128","-87.57735119","POINT (-87.57735119 41.76506128)","2021-159936"
"2021","175872","Piper's Alley","Submitted","230 W North Ave","60610",,"true","LINCOLN PARK","Mixed Use Property","355,532","1977","1",,,"12,207,774.3","7,395,613.1","0","0",,"89.3","191.1","91.3","193.1","2,136.4","9.7","41.91153938","-87.63616909","POINT (-87.63616909 41.91153938)","2021-175872"
"2021","101943","303 West Madison","Submitted","303 W Madison St","60606","4.0","false","LOOP","Office","353,439","1987","1",,"77","17,387,934.1","0","0","0",,"50.3","140.9","52.2","146.3","2,483.5","7.2","41.88191292","-87.63561095","POINT (-87.63561095 41.88191292)","2021-101943"
"2021","102460","Museum of Science and Industry","Submitted","5700 S Lake Shore Dr","60637","4.0","false","HYDE PARK","Museum","1,211,750","1893","1",,,"34,007,516.6","19,338,559.2","0","0",,"44","95.3","46.4","97.8","5,884.3","4.9","41.79055467","-87.58295123","POINT (-87.58295123 41.79055467)","2021-102460"
"2021","250079","Ada S Dennison-McKlinley Apts","Not Submitted","661 E 69th St","60637","0.0","false","WOODLAWN","Multifamily Housing","83,063","1968","1",,,,,,,,,,,,,,"41.769414","-87.608999","POINT (-87.608999 41.769414)","2021-250079"
"2021","251590","Tarkington School of Excellence ES","Submitted","3330 W 71st St","60629","1.0","false","CHICAGO LAWN","K-12 School","136,289","2005","1",,"20","6,180,346.7","4,182,969.9","0","0",,"76","159.2","78.6","158.5","1,104.9","8.1","41.764373","-87.705686","POINT (-87.705686 41.764373)","2021-251590"
"2021","156536","228 South Wabash Building","Submitted","228 S Wabash Ave","60604","4.0","false","LOOP","Office","64,630","1930","1",,"65","3,310,364","0","0","0",,"51.2","143.4","52","145.6","472.8","7.3","41.8791193","-87.62611087","POINT (-87.62611087 41.8791193)","2021-156536"
"2021","251859","Epic Academy Charter High School","Submitted","8255 S Houston Ave","60617","3.5","false","SOUTH CHICAGO","K-12 School","69,921","1902","1",,"79","882,847.5","2,415,633.6","0","0",,"47.2","71.6","52","76.7","254.4","3.6","41.74548157","-87.55011078","POINT (-87.55011078 41.74548157)","2021-251859"
"2021","172221","TCB-Midway, LLC","Submitted","5109 5151 S PULASKI RD","60632","4.0","false","WEST ELSDON","Strip Mall","98,574","1988","2",,,"3,078,794.3","25,972.2","0","0",,"55.9","155.6","54.6","152.2","441.1","7.9","41.7991492","-87.72266908","POINT (-87.72266908 41.7991492)","2021-172221"
"2021","251613","SoutHigh School ide Occupational Academy HS -CPS","Submitted","7342 S Hoyne Ave","60636","0.0","false","WEST ENGLEWOOD","K-12 School","54,740","1988","1",,,"0","0","0","0",,,,,,,,"41.75969491","-87.67627676","POINT (-87.67627676 41.75969491)","2021-251613"
"2021","251449","Libby Elementary -CPS","Exempt","5300 S Loomis Blvd","60609",,"true","NEW CITY","K-12 School","115,600","1901","1",,,,,,,,,,,,,,"41.79736598","-87.66014873","POINT (-87.66014873 41.79736598)","2021-251449"
"2021","255017","Midway Pointe Senior Residences","Submitted","5011 W 47TH ST","60638","4.0","false","Garfield Ridge","Multifamily Housing","88,080","2017","1",,"91","2,193,697.6","1,522,470","0","0",,"42.2","87.9","43.6","89.8","394.2","4.5","41.80752955","-87.74863158","POINT (-87.74863158 41.80752955)","2021-255017"
"2021","251316","03538- Chicago, IL","Submitted","1763 W Howard St","60626","1.5","false","ROGERS PARK","Supermarket/Grocery Store","70,262","2013","1",,"40","10,597,078.3","6,598,099.7","0","0",,"244.7","520.9","252.6","523.6","1,864","26.5","42.01936658","-87.67528214","POINT (-87.67528214 42.01936658)","2021-251316"
"2021","251331","Munroe Hall","Submitted","2312 N Clifton Ave","60614","4.0","false","LINCOLN PARK","College/University","81,951","1970","1",,,"2,967,459.4","4,747,266.6","0","0",,"94.1","162.2","100.1","168.5","676","8.2","41.92394692","-87.65759559","POINT (-87.65759559 41.92394692)","2021-251331"
"2021","252058","Logan Arts Center","Submitted","915 E 60th St","60637","3.0","false","WOODLAWN","Performing Arts","188,821","2011","1",,,"5,690,509.7","0","4,621,747.2","6,153,120",,"87.2","143.5","82.9","139.6","1,443.9","7.6","41.785854","-87.603817","POINT (-87.603817 41.785854)","2021-252058"
"2021","241133","Vue20 Condo Association","Submitted","1845 S Michigan Ave","60616","4.0","false","NEAR SOUTH SIDE","Multifamily Housing","250,000","2003","1",,"77","5,275,801.6","9,118,760.3","0","0",,"57.6","97.4","60.3","99.6","1,237.9","5","41.85653627","-87.62356312","POINT (-87.62356312 41.85653627)","2021-241133"
"2021","164777","Professional Office Building","Submitted","840 W Irving Park Rd","60613","2.0","false","UPTOWN","Medical Office","51,825","2006","1",,"46","3,440,950.8","0","0","0",,"66.4","185.9","66.4","185.9","491.5","9.5","41.954554","-87.651379","POINT (-87.651379 41.954554)","2021-164777"
"2021","251760","Walsh, John A -CPS","Exempt","2031 S Peoria St","60608",,"true","LOWER WEST SIDE","K-12 School","73,288","1992","1",,,,,,,,,,,,,,"41.85437796","-87.64784268","POINT (-87.64784268 41.85437796)","2021-251760"
"2021","175479",,"Not Submitted","5856 5860 N BROADWAY","60660","0.0","false","EDGEWATER",,"95,165",,,,,,,,,,,,,,,,"41.99090057","-87.66660744","POINT (-87.66660744 41.99090057)","2021-175479"
"2021","251629","Bass Elementary -CPS","Exempt","6554 S May St","60621",,"true","ENGLEWOOD","K-12 School","85,881","1895","1",,,,,,,,,,,,,,"41.774895","-87.6532","POINT (-87.6532 41.774895)","2021-251629"
"2021","256670","1 South Leavitt","Submitted","1 S Leavitt Street",,"3.0","false",,"Multifamily Housing","80,144","2004","1",,"70","1,334,706.2","2,598,960.7","0","0",,"70.1","115.2","74.4","119.3","328.7","5.9","41.88425","-87.63245","POINT (-87.63245 41.88425)","2021-256670"
"2021","256835","Trailhead","Submitted","1744 N Western Ave","60645","4.0","false",,"Multifamily Housing","152,347","2018","1",,,"1,204,920.5","805,200","0","0",,"14.5","30.5","15.3","31.3","214.9","1.6","42.012225","-87.69301","POINT (-87.69301 42.012225)","2021-256835"
"2021","173622","444 W Jackson","Submitted","444 W Jackson Blvd","60606","1.0","false","NEAR WEST SIDE","Fitness Center/Health Club/Gym","71,235","1974","1",,,"4,468,246","6,719,351.3","0","0",,"157.1","274.7","165.7","283.7","995.1","14","41.87808768","-87.63895016","POINT (-87.63895016 41.87808768)","2021-173622"
"2021","255948","Spoke","Submitted","728 N Morgan St","60642","2.0","false","WEST TOWN","Multifamily Housing","420,049","2017","2",,"50","14,116,430.1","10,118,603.4","0","0",,"69.8","144.3","71.6","146.3","2,553.6","7.3","41.89598","-87.66056","POINT (-87.66056 41.89598)","2021-255948"
"2021","256557","1407 S. Michigan","Submitted","1411 S Michigan Avenue","60605","1.5","false","Near South Side","Mixed Use Property","110,497","2018","1",,"33","5,793,105.1","6,081,615.3","0","0",,"146.1","278.2","148.1","277.2","1,150.4","14.2","41.865858","-87.6195328","POINT (-87.6195328 41.865858)","2021-256557"
"2021","138379","6200 N Hiawatha Ave","Submitted","6200 N HIAWATHA AVE","60646","4.0","false","FOREST GLEN","Office","117,780","1968","1",,"100","316,374.2","0","0","0",,"2.7","7.5",,,"45.2","0.4","41.99367467","-87.74969325","POINT (-87.74969325 41.99367467)","2021-138379"
"2021","251488","Esmond Elementary School","Submitted","1865 W Montvale Ave","60643","1.0","false","MORGAN PARK","K-12 School","53,700","1891","3",,"25","921,730","5,684,139.3","0","0",,"123","159.2","133.7","170.4","433.6","8.1","41.6887948","-87.66968662","POINT (-87.66968662 41.6887948)","2021-251488"
"2021","253996","(IL695) - The Pierre Condominium","Submitted","2100 N Lincoln Park West","60614","3.5","false","Lincoln Park","Multifamily Housing","230,594","1916","1",,"78","3,636,550.5","11,014,418","0","0",,"77","114.3","80.5","116.7","1,104.4","5.8","41.9217371","-87.65392","POINT (-87.65392 41.9217371)","2021-253996"
"2021","254355","Schreiber Center- ID#254355","Submitted","16 E PEARSON ST","60611","4.0","false","Near North Side","College/University","126,000","2016","1",,,"2,167,689.3","1,866,700","0","0",,"32","63.7","33.9","65.8","408.8","3.2","41.89535128","-87.62272623","POINT (-87.62272623 41.89535128)","2021-254355"
"2021","252240","Presence Center for Advanced Care","Submitted","331 W Surf St","60657",,"true","LAKE VIEW","Medical Office","373,881","2015","1",,,"16,109,198.4","19,606,533.3","0","0",,"148.8","273.8","150.4","273","3,342.2","13.9","41.93430593","-87.6384177","POINT (-87.6384177 41.93430593)","2021-252240"
"2021","251557","Mildred I Lavizzo Elementary School","Submitted","137 W 108th Pl","60628","1.0","false","ROSELAND","K-12 School","83,900","1999","1",,"17","3,490,274.7","3,989,140.1","0","0",,"89.1","166.4","92.6","166.9","710.4","8.5","41.697071","-87.626522","POINT (-87.626522 41.697071)","2021-251557"
"2021","160450","Sono East - CO (ss78)","Submitted","840 W Blackhawk St","60642","4.0","false","NEAR NORTH SIDE","Multifamily Housing","392,548","2012","1",,"95","5,457,811.3","12,207,771.7","0","0",,"55.6","88.4","58","90.9","1,427.9","4.5","41.908557","-87.649735","POINT (-87.649735 41.908557)","2021-160450"
"2021","256776",,"Exempt","900 E GRAND AVE","60611",,"true","Near North Side",,"50,000",,,,,,,,,,,,,,,,"41.89535","-87.622775","POINT (-87.622775 41.89535)","2021-256776"
"2021","162318","StStan_School","Submitted","1255 N Noble St","60642","4.0","false","WEST TOWN","K-12 School","96,858","1950","1",,"97","805,465.4","2,508,729.9","0","0",,"34.2","50.5","38.4","55.5","248.3","2.6","41.90469462","-87.6625984","POINT (-87.6625984 41.90469462)","2021-162318"
"2021","103205",,"Not Submitted","7260  S SOUTH SHORE DR","60649","0.0","false","SOUTH SHORE",,"99,523",,,,,,,,,,,,,,,,"41.76259226","-87.57231648","POINT (-87.57231648 41.76259226)","2021-103205"
"2021","252126","08270 - Ford City 14","Submitted","7601 S Cicero Ave","60652","1.0","false","WEST LAWN","Movie Theater","72,545","1990","1",,,"6,235,842.9","3,494,720.1","0","0",,"134.1","291.3","141.5","299","1,076.3","14.8","41.75582921","-87.73699268","POINT (-87.73699268 41.75582921)","2021-252126"
"2021","172640","232-Senior Suites of Washington Heights","Submitted","832 890 W 103RD ST","60643","3.0","false","WASHINGTON HEIGHTS","Senior Living Community","65,505","2001","1",,"50","1,717,532.6","4,273,400.2","0","0",,"91.5","141.9","97.9","147.7","472.3","7.2","41.6981819","-87.66236671","POINT (-87.66236671 41.6981819)","2021-172640"
"2021","221086","1500 Lakeshore Drive Building Corp.","Submitted","1500 N Lakeshore Dr","60610","4.0","false","NEAR NORTH SIDE","Multifamily Housing","303,734","1928","1",,"61","5,872,686.6","18,234,687.1","0","0",,"84","123.9","90.7","129.2","1,807.3","6.3","41.90981067","-87.62674615","POINT (-87.62674615 41.90981067)","2021-221086"
"2021","250100","Lorraine Hansberry Senior Apartments","Not Submitted","5670 W Lake St","60644","0.0","false","AUSTIN","Multifamily Housing","106,272","1976","1",,,,,,,,,,,,,,"41.88836882","-87.76678586","POINT (-87.76678586 41.88836882)","2021-250100"
"2021","254102","(IL380) - Residences at The Vic","Submitted","3140 N Sheffield Ave","60657","4.0","false","Lake View","Multifamily Housing","148,500","2007","1",,"82","3,458,379.3","3,107,138.4","0","0",,"55.8","110.1","57.8","112.2","659","5.6","41.9393396","-87.65423","POINT (-87.65423 41.9393396)","2021-254102"
"2021","117311","Chicago-Lakeshore","Submitted","6130  N SHERIDAN RD","60660","4.0","false","EDGEWATER","Other - Specialty Hospital","80,684","2000","1",,,"6,516,438.9","10,431,958.2","0","0",,"210.1","361.9","225.4","373.3","1,484.8","18.4","41.99090057","-87.66660744","POINT (-87.66660744 41.99090057)","2021-117311"
"2021","156576","Rice Building","Submitted","815 W Van Buren St","60607","2.5","false","NEAR WEST SIDE","Office","80,610","1910","1",,"60","2,784,983.6","3,074,557.2","0","0",,"72.7","136.8","77.2","141.5","561.1","7","41.87638333","-87.64804242","POINT (-87.64804242 41.87638333)","2021-156576"
"2021","251642","James G Blaine Elementary School","Submitted","1420 W Grace St","60613","2.5","false","LAKE VIEW","K-12 School","98,646","1893","3",,"60","1,710,085.2","5,271,930.2","0","0",,"70.8","104.7","79.3","115.4","524.3","5.3","41.95097289","-87.66504977","POINT (-87.66504977 41.95097289)","2021-251642"
"2021","172448",,"Not Submitted","100 118 N PULASKI RD","60624","0.0","false","WEST GARFIELD PARK",,"123,991",,,,,,,,,,,,,,,,"41.8808242","-87.72327934","POINT (-87.72327934 41.8808242)","2021-172448"
"2021","251649","William H Ryder Math & Science Specialty ES","Submitted","8716 S Wallace St","60620","2.0","false","AUBURN GRESHAM","K-12 School","73,326","1912","2",,"42","1,570,761.3","4,644,000","0","0",,"84.8","126.5","92.2","134.3","471","6.4","41.73526106","-87.6395147","POINT (-87.6395147 41.73526106)","2021-251649"
"2021","238097","111 South Morgan","Submitted","111 S Morgan St","60607","4.0","false","NEAR WEST SIDE","Multifamily Housing","271,138","2003","1",,"83","5,142,447","6,358,737.5","0","0",,"60.4","110.6","62","110.9","1,072.2","5.6","41.8796953","-87.65162494","POINT (-87.65162494 41.8796953)","2021-238097"
"2021","100179","Saint Anthony Hospital - Main Hospital","Submitted","2875 W 19th St","60623","2.5","false","SOUTH LAWNDALE","Hospital (General Medical & Surgical)","450,612","1897","1",,"56","23,712,134.1","44,202,524.7","0","0",,"284.1","471.9","290.8","473.5","5,734.5","24","41.85513555","-87.6978405","POINT (-87.6978405 41.85513555)","2021-100179"
"2021","174249","Westport Commons - Ultra Foods","Not Submitted","3250 W 87th St","60652","0.0","false","ASHBURN","Supermarket/Grocery Store","213,066","1992","1",,,,,,,,,,,,,,"41.735136","-87.70614765","POINT (-87.70614765 41.735136)","2021-174249"
"2021","254154","Swartzberg House","Submitted","3101 W Touhy Ave","60645","2.5","false","West Ridge","Multifamily Housing","95,230","1980","1",,"58","1,448,690.8","5,264,600.1","0","0",,"80.2","114.5","87.4","121.2","486.5","5.8","41.8842525","-87.63245","POINT (-87.63245 41.8842525)","2021-254154"
"2021","128321",,"Not Submitted","2315  W LEMOYNE ST","60622","0.0","false","WEST TOWN",,"76,497",,,,,,,,,,,,,,,,"41.90225377","-87.68447845","POINT (-87.68447845 41.90225377)","2021-128321"
"2021","253955","550 W Fulton Condo Assoc.","Submitted","550 W Fulton","60661","4.0","false","NEAR WEST SIDE","Multifamily Housing","76,037","1999","1",,"88","1,257,970.3","2,901,527.8","0","0",,"65.2","103","68.9","105.4","333.8","5.2","41.8832102","-87.64337484","POINT (-87.64337484 41.8832102)","2021-253955"
"2021","159099","Sofitel Chicago Water Tower","Submitted","20 E Chestnut St","60611","0.0","false","NEAR NORTH SIDE","Hotel","377,000","2002","1",,,"0","0","0","0",,,,,,,,"41.89869734","-87.62731284","POINT (-87.62731284 41.89869734)","2021-159099"
"2021","105070",,"Not Submitted","1548 1558 W JUNEWAY TER","60626","0.0","false","ROGERS PARK",,"58,791",,,,,,,,,,,,,,,,"42.01036185","-87.66829765","POINT (-87.66829765 42.01036185)","2021-105070"
"2021","101720","131 S. Dearborn 3","Submitted","131 S Dearborn","60603","3.0","false","LOOP","Office","1,778,504","2002","1",,"68","140,809,555","84,598.3","0","0",,"85.3","238.6","86.8","242.9","20,115.8","12.2","41.87980869","-87.62854911","POINT (-87.62854911 41.87980869)","2021-101720"
"2021","242655","Ten East Delaware","Submitted","10 E Delaware Pl","60611","3.5","false","NEAR NORTH SIDE","Multifamily Housing","449,653","2009","1",,"53","11,492,121","12,847,883.6","0","0",,"65.7","123.2","67.9","125.5","2,323.8","6.3","41.89939252","-87.62790258","POINT (-87.62790258 41.89939252)","2021-242655"
"2021","250147","820 W Jackson Blvd","Not Submitted","820 W Jackson Blvd","60607","0.0","false","NEAR WEST SIDE","Office","175,086","1915","1",,,,,,,,,,,,,,"41.8782695","-87.64808396","POINT (-87.64808396 41.8782695)","2021-250147"
"2021","102232","2800 Lake Shore Drive Condo Association (102232)","Submitted","2800 N Lake Shore Dr","60657","4.0","false","LAKE VIEW","Multifamily Housing","852,820","1969","1",,"81","9,145,886.5","48,935,882.8","0","0",,"76.6","101.6","83.6","107.6","3,905.5","5.2","41.93329168","-87.63716558","POINT (-87.63716558 41.93329168)","2021-102232"
"2021","172788","Lake Meadows 4","Submitted","3440  S COTTAGE GROVE AVE","60616","1.0","false","DOUGLAS","Multifamily Housing","107,500","1952","1",,"2","1,077,848.8","19,593,728.3","0","0",,"192.3","219.5","209.4","236.8","1,194.7","11.1","41.84550365","-87.63055693","POINT (-87.63055693 41.84550365)","2021-172788"
"2021","243527","RiverView Condominium Association","Submitted","445 E North Water St","60611","2.5","false","NEAR NORTH SIDE","Multifamily Housing","1,135,720","2000","2",,"52","26,483,654","21,800,863.1","0","0",,"58.1","116.8","57.8","114","4,940.5","5.9","41.88925047","-87.61594682","POINT (-87.61594682 41.88925047)","2021-243527"
"2021","251900","Jonathan Y Scammon Elementary School","Submitted","4201 W Henderson St","60641","3.5","false","IRVING PARK","K-12 School","85,474","1926","5",,"78","1,755,932.2","2,043,389.9","0","0",,"44.5","82.6","48.6","88.3","359.3","4.2","41.94126828","-87.73387796","POINT (-87.73387796 41.94126828)","2021-251900"
"2021","158224","The Shoreham at Lakeshore East","Submitted","400 E South Water St","60601","1.5","false","LOOP","Multifamily Housing","458,305","2005","1",,"37","13,005,455.6","27,222,116.7","0","0",,"93.5","151","98.3","154.5","3,303.4","7.7","41.88673811","-87.61677077","POINT (-87.61677077 41.88673811)","2021-158224"
"2021","103727",,"Not Submitted","5040 5060 N BROADWAY","60640","0.0","false","UPTOWN",,"436,961",,,,,,,,,,,,,,,,"41.97411618","-87.66026911","POINT (-87.66026911 41.97411618)","2021-103727"
"2021","159733","Sheridan-Gunnison Apts.","Submitted","4827 N SHERIDAN RD","60640","4.0","false","UPTOWN","Multifamily Housing","189,225","1967","1",,"65","2,912,970.1","11,868,665.2","0","0",,"90.1","125.7","97.5","133.4","1,046.5","6.4","41.96968174","-87.6544131","POINT (-87.6544131 41.96968174)","2021-159733"
"2021","128905","Clayton Residential Home Inc","Submitted","2026  N CLARK ST","60614","2.0","false","LINCOLN PARK","Residential Care Facility","61,757","1928","1",,,"2,265,469.1","8,211,000.7","0","0",,"169.6","242.3","181.9","253.6","759.7","12.3","41.92201051","-87.65461957","POINT (-87.65461957 41.92201051)","2021-128905"
"2021","104879","2600 N Hampden","Submitted","2600  N HAMPDEN CT","60614","4.0","false","LINCOLN PARK","Multifamily Housing","90,000","2005","1",,"84","2,435,175.1","0","0","0",,"37.5","104.9","38.9","109","347.8","5.4","41.92201051","-87.65461957","POINT (-87.65461957 41.92201051)","2021-104879"
"2021","114196","1550 State Parkway Condominium Association","Submitted","1544 1554 N STATE PKWY","60610","2.0","false","NEAR NORTH SIDE","Multifamily Housing","104,400","1912","1",,"50","2,204,494.2","7,064,458.4","0","0",,"88.8","130.2","94.9","135","690.1","6.6","41.9037528","-87.63558845","POINT (-87.63558845 41.9037528)","2021-114196"
"2021","256817","4400 Grove Apartments - North Bldg","Submitted","4424 S COTTAGE GROVE AVE","60653","4.0","false","Grand Boulevard","Multifamily Housing","57,149","2020","1",,"94","766,220.9","1,652,516.6","0","0",,"42.3","67.9","43.9","68.6","197.2","3.5","41.816805","-87.607775","POINT (-87.607775 41.816805)","2021-256817"
"2021","106027","Three Belmont","Submitted","505  W BELMONT AVE","60657","4.0","false","LAKE VIEW","Multifamily Housing","51,480","1925","1",,"95","1,451,353.2","1,389,915.6","0","0",,"55.2","107.3","57.4","112","281.1","5.5","41.9398511","-87.65844752","POINT (-87.65844752 41.9398511)","2021-106027"
"2021","251315","00202- Chicago, IL","Submitted","2550 N Clybourn St","60614","3.5","false","LINCOLN PARK","Supermarket/Grocery Store","85,209","2013","1",,"53","11,178,865.3","7,285,700.2","0","0",,"216.7","457.1","223.6","461.8","1,983.6","23.3","41.92777731","-87.67299035","POINT (-87.67299035 41.92777731)","2021-251315"
"2021","232062","Prairie District Homes Tower Residences Condominium Association","Submitted","1717 S Prairie Ave","60616","2.5","false","NEAR SOUTH SIDE","Multifamily Housing","343,068","2003","1",,"32","8,158,163.7","15,064,665.9","0","0",,"79.8","132.8","85.6","139","1,965.4","6.8","41.85847515","-87.61984803","POINT (-87.61984803 41.85847515)","2021-232062"
"2021","175421","7219 N Sheridan Rd","Submitted","7219  N SHERIDAN RD","60626","1.0","false","ROGERS PARK","Multifamily Housing","52,998","1928","1",,"20","738,292","5,409,892.8","0","0",,"116","146.2","127","156.4","392.8","7.4","42.01036185","-87.66829765","POINT (-87.66829765 42.01036185)","2021-175421"
"2021","256634","The Burnham at Woodlawn Park","Submitted","6134 S. Cottage Grove Avenue",,"2.0","false",,"Multifamily Housing","73,673","2015","1",,"50","2,803,544.6","1,002,891.8","0","0",,"51.7","117.6","53.6","120.4","453.7","6.2","41.88425","-87.63245","POINT (-87.63245 41.88425)","2021-256634"
"2021","251925","Peter V. Byrne Hall","Submitted","2219 N Kenmore Ave","60614","4.0","false","LINCOLN PARK","College/University","77,485","1968","1",,,"1,694,931.5","7,392,620.8","0","0",,"117.3","161.4","128.1","171.5","634.7","8.2","41.922073","-87.654665","POINT (-87.654665 41.922073)","2021-251925"
"2021","172343","T2613 - Chicago Division","Submitted","1200 N Larrabee St","60610","3.0","false","NEAR NORTH SIDE","Commerce de dtail","190,487","2013","1",,"61","9,255,732.4","5,276,700.2","0","0",,"76.3","165.1","78.2","165.5","1,602.2","8.4","41.903766","-87.64324","POINT (-87.64324 41.903766)","2021-172343"
"2021","113335","Ravinia Lofts Condominium Association","Submitted","2024 2030 S WABASH AVE","60616","4.0","false","NEAR SOUTH SIDE","Multifamily Housing","77,000","1920","1",,"89","1,254,664.1","2,426,900.4","0","0",,"59.9","98.6","62.8","100.1","308.1","5","41.84550365","-87.63055693","POINT (-87.63055693 41.84550365)","2021-113335"
"2021","173907","Hampton House Condominiums","Submitted","1715 1733 E 53RD ST","60615","4.0","false","HYDE PARK","Multifamily Housing","176,450","1918","1",,"66","1,943,227.1","11,344,029.9","0","0",,"75.3","98.3","81.5","104.2","880.1","5","41.80224043","-87.60332678","POINT (-87.60332678 41.80224043)","2021-173907"
"2021","102397","Walsh Park Apartments","Submitted","1734  N PAULINA ST","60622","3.5","false","WEST TOWN","Multifamily Housing","95,110","1984","1",,"73","3,310,161.4","2,056,440.5","0","0",,"56.4","120.2","59.1","124.9","582","6.1","41.90225377","-87.68447845","POINT (-87.68447845 41.90225377)","2021-102397"
"2021","114866","Barclay Condominium Home Owners' Association, Inc","Submitted","4940  S EASTEND AVE","60615","3.5","false","KENWOOD","Multifamily Housing","146,840","1928","1",,"80","1,621,140.1","9,483,728.5","0","0",,"75.6","98.7","82.5","105","735.3","5","41.80224043","-87.60332678","POINT (-87.60332678 41.80224043)","2021-114866"
"2021","160099","The Peninsula Chicago","Submitted","108 E Superior St","60611","2.0","false","NEAR NORTH SIDE","Hotel","410,081","2000","1",,"17","36,661,257.6","16,326,399.8","0","0",,"129.2","292.1","131.4","294.5","6,103.4","14.9","41.895753","-87.625059","POINT (-87.625059 41.895753)","2021-160099"
"2021","101901","1123 The Allegro Royal Sonesta Hotel 171 W Randolph","Submitted","151 171 W Randolph St","60601","1.0","false","LOOP","Hotel","383,168","1926","1",,"30","8,764,216.7","54,905,797","0","18,621,120.5",,"214.8","258.7","226.6","271.2","5,149.4","13.4","41.8841082","-87.63304764","POINT (-87.63304764 41.8841082)","2021-101901"
"2021","112607","6118 Sheridan Road Condominium Homeowners Association","Submitted","6118  N SHERIDAN RD","60660","1.0","false","EDGEWATER","Multifamily Housing","102,000","1960","1",,"17","2,305,385.7","11,271,123","0","0",,"133.1","179.3","146.4","191.8","927.9","9.1","41.99090057","-87.66660744","POINT (-87.66660744 41.99090057)","2021-112607"
"2021","164102","First Presbyterian Church","Not Submitted","6400 S Kimbark Ave","60637","0.0","false","WOODLAWN","Worship Facility","50,000","1928","1",,,,,,,,,,,,,,"41.77840382","-87.59508184","POINT (-87.59508184 41.77840382)","2021-164102"
"2021","148480","The Larrabee Condominium Association","Submitted","865  N LARRABEE ST","60610","3.0","false","NEAR NORTH SIDE","Multifamily Housing","80,457","2006","1",,"65","1,839,711.5","3,167,877.7","0","0",,"62.2","105.4","63.2","104.5","431","5.4","41.9037528","-87.63558845","POINT (-87.63558845 41.9037528)","2021-148480"
"2021","127031","016910 - Old Town Square","Submitted","424 W DIVISION ST","60610","4.0","false","NEAR NORTH SIDE","Strip Mall","201,185","1998","2",,,"197,655.7","0","0","0",,"2.1","5.8","2.2","6.1","28.2","0.3","41.90515014","-87.63936869","POINT (-87.63936869 41.90515014)","2021-127031"
"2021","256562",,"Not Submitted","450 N Morgan St","60642","0.0","false","West Town",,"57,600",,,,,,,,,,,,,,,,"41.89465648","-87.6548","POINT (-87.6548 41.89465648)","2021-256562"
"2021","158433","Clinton Street Lofts","Submitted","226 N Clinton St","60661","3.5","false","NEAR WEST SIDE","Multifamily Housing","188,400","1885","1",,"80","4,097,651.6","5,147,647.2","0","0",,"66.2","120.8","66.6","119","858.7","6.1","41.8860179","-87.64181202","POINT (-87.64181202 41.8860179)","2021-158433"
"2021","171887","1820 N Spaulding","Submitted","1824 N SPAULDING AVE","60647","4.0","false","LOGAN SQUARE","Multifamily Housing","65,000","2015","1",,"86","1,064,192.6","2,859,257","0","0",,"60.4","92","63.7","93.6","303.9","4.7","41.92075046","-87.70152825","POINT (-87.70152825 41.92075046)","2021-171887"
"2021","172065","CICERO ANNEX","Submitted","8101 8141 S CICERO AVE","60652","4.0","false","ASHBURN","Strip Mall","141,423","1950","1",,,"418,358.3","1,329,387.6","0","0",,"26.3","38.7","28.9","40.9","130.4","2","41.74475997","-87.74025403","POINT (-87.74025403 41.74475997)","2021-172065"
"2021","100320","IMDC LAPORTE, LLC","Submitted","4039 4051 N LAPORTE AVE","60641","4.0","false","PORTAGE PARK","Multifamily Housing","96,000","1934","1",,"94","344,536.9","4,745,400.4","0","0",,"53","62","58.8","67.8","301.3","3.1","41.94615136","-87.74707694","POINT (-87.74707694 41.94615136)","2021-100320"
"2021","250041","Collins Academy High School","Submitted","1313 S Sacramento Blvd","60623","1.0","false","NORTH LAWNDALE","K-12 School","206,018","1976","3",,"9","9,961,770.7","15,439,928.9","0","0",,"123.3","214.1","130.8","220.1","2,242.9","10.9","41.86436444","-87.70082786","POINT (-87.70082786 41.86436444)","2021-250041"
"2021","173961","Chatham Park South Co-Op","Submitted","660  E 85TH ST","60619","3.5","false","CHATHAM","Multifamily Housing","75,634","1983","1",,"56","3,035,867.3","1,891,841.4","0","0",,"65.5","139.3","68.7","145.9","534.1","7.1","41.74401302","-87.60549928","POINT (-87.60549928 41.74401302)","2021-173961"
"2021","253962","Moser Building Condominium Association","Submitted","621 S Plymouth Ct","60605","4.0","false","Loop","Multifamily Housing","144,649","1915","1",,"98","1,668,280.3","4,355,267.3","0","0",,"41.6","63.9","44.3","65.7","469.6","3.2","41.8684207","-87.62414082","POINT (-87.62414082 41.8684207)","2021-253962"
"2021","156731","Seventy East","Submitted","70 E Lake St","60601","3.5","false","LOOP","Office","154,373","1927","1",,"79","6,293,123.5","0","0","0",,"40.8","114.1","43.4","121.6","898.8","5.8","41.8857976","-87.62554085","POINT (-87.62554085 41.8857976)","2021-156731"
"2021","175383","Chicago Metropolitan Housing Development Corporation","Submitted","5152 5178 S KING DR","60615","3.0","false","WASHINGTON PARK","Multifamily Housing","58,656","1915","1",,"68","378,274.8","3,838,984.4","0","0",,"71.9","86.8","78.3","93.1","257.9","4.4","41.80224043","-87.60332678","POINT (-87.60332678 41.80224043)","2021-175383"
"2021","162360","Jordan Elementary Community School","Submitted","7414 N Wolcott Ave","60626","1.0","false","ROGERS PARK","K-12 School","66,950","1993","1",,"21","1,942,896.9","4,798,130.1","0","0",,"100.7","156.5","110","164.7","532.3","8","42.01711706","-87.67802784","POINT (-87.67802784 42.01711706)","2021-162360"
"2021","255003","L - Logan Square Apartment Community 
Navigator Taproom","Not Submitted","2211 N MILWAUKEE AVE","60647","0.0","false","Logan Square",,"119,727",,,,,,,,,,,,,,,,"41.92105626","-87.69421012","POINT (-87.69421012 41.92105626)","2021-255003"
"2021","260060","2300 N Commonwealth","Submitted","2300 2320 N COMMONWEALTH AVE","60614","4.0","false","LINCOLN PARK","Multifamily Housing","68,974","1991","1",,"84","1,570,915.5","2,114,198.3","0","0",,"65.7","118","68.5","118","336.7","6","41.92201051","-87.65461957","POINT (-87.65461957 41.92201051)","2021-260060"
"2021","173497","Shop & Save Market - Nagle","Submitted","6312 N Nagle Ave","60646","0.0","false","NORWOOD PARK","Supermarket/Grocery Store","66,711","1987","1",,,"0","0","0","0",,,,,,,,"41.99589087","-87.78753092","POINT (-87.78753092 41.99589087)","2021-173497"
"2021","256733","Michael M Byrne Elementary School","Submitted","5329 S Oak Park Avenue","60656","2.5","false",,"K-12 School","78,340","1935","4",,"60","1,896,600.5","2,321,210","0","0",,"53.8","98.9","57.3","102.5","394.2","5","41.975525","-87.8018","POINT (-87.8018 41.975525)","2021-256733"
"2021","103745","900 North Michigan","Submitted","900 North Michigan","60611",,"true","NEAR NORTH SIDE","Mixed Use Property","2,731,896","1989","1",,,"137,920,137","34,033,643","0","0",,"80.5","197.5","82.3","201.4","21,506.3","10.1","41.89920885","-87.62650606","POINT (-87.62650606 41.89920885)","2021-103745"
"2021","103743","33 N. Dearborn","Submitted","33 N Dearborn St","60602","3.5","false","LOOP","Office","372,137","1966","1",,"79","7,970,817.6","12,964,338.9","0","7,993,883.9",,"77.7","116.1","78.9","117.9","2,248.3","6","41.88287054","-87.62903883","POINT (-87.62903883 41.88287054)","2021-103743"
"2021","101039","Marshall Metro HS -CPS","Exempt","3250 W Adams St","60624",,"true","EAST GARFIELD PARK","K-12 School","366,981","1927","1",,,,,,,,,,,,,,"41.87909618","-87.70740611","POINT (-87.70740611 41.87909618)","2021-101039"
"2021","173768","813-31 West Waveland","Submitted","813 831 W WAVELAND AVE","60613","4.0","false","LAKE VIEW","Multifamily Housing","50,000","1925","1",,"87","940,775.1","1,710,408.3","0","0",,"53","88.6","55.9","91.6","225.2","4.5","41.95402016","-87.6620278","POINT (-87.6620278 41.95402016)","2021-173768"
"2021","254166","Crown Center-ID#254166","Submitted","1001 1025 W Loyola Ave","60626","4.0","false","Rogers Park","College/University","81,740","1984","1",,,"3,124,260.2","3,215,912.8","0","0",,"77.6","148.3","80.5","147","617","7.5","42.0015891","-87.65674","POINT (-87.65674 42.0015891)","2021-254166"
"2021","256690","Ingleside Investment Group LLC","Not Submitted","1335 W FARGO AVE","60626-1864","0.0","false",,,"31,975",,,,,,,,,,,,,,,,"42.017109","-87.6644495","POINT (-87.6644495 42.017109)","2021-256690"
"2021","254016","Prete Apartments","Submitted","5801 N Pulaski Rd - Bldg E","60646","4.0","false","North Park","Residential Care Facility","55,866","1991","1",,,"1,801,687.8","2,110,482.1","0","0",,"70","130","74.4","134.8","369.4","6.6","41.9995854","-87.77148","POINT (-87.77148 41.9995854)","2021-254016"
"2021","158142","Lake Shore Plaza","Submitted","445 E Ohio St","60611","1.0","false","NEAR NORTH SIDE","Multifamily Housing","415,260","1985","1",,"9","23,009,937.7","17,450,000","0","0",,"97.4","199.3","101.5","203.6","4,213.3","10.1","41.89224062","-87.61627223","POINT (-87.61627223 41.89224062)","2021-158142"
"2021","251575","Delano Elementary, Edward C -CPS","Exempt","3937 W Wilcox St","60624",,"true","WEST GARFIELD PARK","K-12 School","99,420","1966","1",,,,,,,,,,,,,,"41.87837616","-87.72434523","POINT (-87.72434523 41.87837616)","2021-251575"
"2021","251660","Lawndale Community Academy -CPS","Exempt","3500 W Douglas Blvd","60623",,"true","NORTH LAWNDALE","K-12 School","116,650","1960","1",,,,,,,,,,,,,,"41.862916","-87.71298","POINT (-87.71298 41.862916)","2021-251660"
"2021","175223","FM Property LLC","Submitted","833 857 W FULTON MARKET","60607",,"true","NEAR WEST SIDE","Multifamily Housing","76,596","1900","1",,,"4,022,171.4","9,166,797","0","0",,"224.6","355.6","231.5","357.8","1,061.4","18.1","41.87399385","-87.651678","POINT (-87.651678 41.87399385)","2021-175223"
"2021","160142","U.S. Cellular Plaza - 8430 _ Goby LLC","Submitted","8430 W Bryn Mawr Ave","60631","4.0","false","OHARE","Office","200,150","1981","1",,"95","4,283,018.8","0","0","0",,"21.4","59.9","21.4","59.9","611.7","3.1","41.981131","-87.837979","POINT (-87.837979 41.981131)","2021-160142"
"2021","106223","4521-23 North Malden Street","Submitted","4521 4523 N MALDEN ST","60640","4.0","false","UPTOWN","Multifamily Housing","51,840","1988","1",,"91","540,386.8","2,548,789.2","0","0",,"59.6","80.8","63.8","85.2","212.6","4.1","41.97223008","-87.6645957","POINT (-87.6645957 41.97223008)","2021-106223"
"2021","252328","5630 N Sheridan","Submitted","5630 N Sheridan Ave","60660","3.5","false","EDGEWATER","Multifamily Housing","259,996","1957","1",,"76","3,211,910.1","18,350,598.4","0","0",,"89.8","117.8","97.8","126.1","1,433.4","6","41.98474511","-87.65522225","POINT (-87.65522225 41.98474511)","2021-252328"
"2021","239540","(IL487) - The Gold Coast","Submitted","71 E DIVISION ST","60610","4.0","false","NEAR NORTH SIDE","Multifamily Housing","199,712","1970","1",,"89","4,664,340.5","2,924,613","0","0",,"38","80.8","39.5","83.2","821.5","4.1","41.90376285","-87.62612567","POINT (-87.62612567 41.90376285)","2021-239540"
"2021","256434","Keating Hall","Submitted","3040 S Wabash Avenue","60616","2.0","false","DOUGLAS","College/University","53,163","1967","1",,,"1,924,228.1","64,367,999","0","0",,"1,247","1,372.7","1,247.5","1,374.2","3,693.7","69.5","41.842325","-87.62715344","POINT (-87.62715344 41.842325)","2021-256434"
"2021","256546","New Life Covenent Church-SE","Not Submitted","7621 S Greenwood Ave","60619","0.0","false","Greater Grand Crossing",,"85,000",,,,,,,,,,,,,,,,"41.743965","-87.605245","POINT (-87.605245 41.743965)","2021-256546"
"2021","254262","Sunnycourt Condominiums","Submitted","906 934 W Sunnyside","60640","1.5","false","Uptown","Multifamily Housing","75,600","1926","1",,"36","803,505.9","6,696,854.2","0","0",,"99.2","122.8","105.9","129","470.5","6.2","41.9726457","-87.66491","POINT (-87.66491 41.9726457)","2021-254262"
"2021","109573","Casa Bonita Condominium Association","Submitted","7340 7352 N RIDGE BLVD","60645","1.0","false","WEST RIDGE","Multifamily Housing","110,000","1920","1",,"21","751,066.5","10,462,674.5","0","0",,"101.9","119","113.3","130.4","663","6","42.00880199","-87.69502812","POINT (-87.69502812 42.00880199)","2021-109573"
"2021","256544","One Bennett Park","Submitted","451 E Grand Ave","60611","3.5","false","Near North Side","Multifamily Housing","785,000","2018","1",,"75","18,358,334.2","25,179,461","0","0",,"55.5","99.2","58.5","102.3","3,959.5","5","41.898405","-87.622625","POINT (-87.622625 41.898405)","2021-256544"
"2021","101762","RICHARD J. DALEY CENTER","Submitted","50 W Washington","60602","3.0","false","LOOP","Courthouse","1,593,714","1965","1",,"68","50,201,882","63,999,339.4","0","0",,"74.1","134.8","79.3","140.2","10,569.5","6.9","41.88409726","-87.63019634","POINT (-87.63019634 41.88409726)","2021-101762"
"2021","251719","Laughlin Falconer Elementary School","Submitted","3020 N Lamon Ave","60641","2.0","false","BELMONT CRAGIN","K-12 School","165,513","1919","2",,"46","4,034,014.4","8,164,059.9","0","0",,"73.7","120","80.6","127.3","1,009.8","6.1","41.93560317","-87.74994734","POINT (-87.74994734 41.93560317)","2021-251719"
"2021","252070","Lake Village East","Submitted","4700 S Lake Park Ave","60615","3.5","false","KENWOOD","Multifamily Housing","180,000","1971","3",,"77","3,505,973.3","10,698,599.8","0","0",,"78.9","116.9","83.1","120.2","1,069","5.9","41.8093257","-87.59248161","POINT (-87.59248161 41.8093257)","2021-252070"
"2021","254009","Maple Court Apartments","Submitted","1120 1126 E 47th St","60653","1.0","false","Kenwood","Multifamily Housing","50,760","1915","1",,"17","451,656.7","6,158,509.8","0","0",,"130.2","152.3","143.4","165.3","391.6","7.7","41.8202295","-87.61187","POINT (-87.61187 41.8202295)","2021-254009"
"2021","174323","Letterman Chicago","Submitted","410  S MORGAN ST","60607","1.0","false","NEAR WEST SIDE","Multifamily Housing","250,000","2006","1",,,"7,777,650.6","14,456,483.2","0","0",,"98.8","164.3","105.1","170.9","1,878.7","8.3","41.87399385","-87.651678","POINT (-87.651678 41.87399385)","2021-174323"
"2021","175808","Romanian Village","Submitted","5161  N ASHLAND AVE","60640","2.5","false","Uptown","Multifamily Housing","70,000","1923","1",,"31","1,311,794.6","5,109,980.5","0","0",,"91.7","129.1","96.9","133.2","458.8","6.6","41.9722301","-87.6646","POINT (-87.6646 41.9722301)","2021-175808"
"2021","105921","1246 Pratt LLC","Submitted","1246 1248 W PRATT BLVD","60626","4.0","false","ROGERS PARK","Multifamily Housing","65,419","1934","1",,"82","1,338,983.8","4,136,524.2","0","0",,"83.7","123.7","90.4","130","411","6.3","42.01036185","-87.66829765","POINT (-87.66829765 42.01036185)","2021-105921"
"2021","250027","Garfield Park Conservatory","Not Submitted","300 N Central Park Ave","60624","0.0","false","EAST GARFIELD PARK","Other","419,907","1908","15",,,,,,,,,,,,,,"41.88626194","-87.7179624","POINT (-87.7179624 41.88626194)","2021-250027"
"2021","254381","Campus North Residential Commons","Submitted","5500 S UNIVERSITY AVE","60637","3.5","false","Hyde Park","Residence Hall/Dormitory","419,219","2016","1",,"74","10,610,003","16,516,590.9","0","8,898,697.4",,"85.9","131.6","88.2","135.3","2,861.6","6.8","41.78040086","-87.60270024","POINT (-87.60270024 41.78040086)","2021-254381"
"2021","158407","CCC District Office","Not Submitted","226 W Jackson Blvd","60606","0.0","false","LOOP","Office","226,546","1904","1",,,,,,,,,,,,,,"41.87843051","-87.63488331","POINT (-87.63488331 41.87843051)","2021-158407"
"2021","236345","The Private Residences at Ontario Place, a Condominium","Submitted","10 E Ontario St","60611","1.0","false","NEAR NORTH SIDE","Multifamily Housing","690,169","1983","1",,"13","38,372,000.3","9,260,060.6","0","0",,"97","238.6","99.4","244.2","5,972.4","12.2","41.893322","-87.62772","POINT (-87.62772 41.893322)","2021-236345"
"2021","119914","N002301-CHICAGO (83RD & STEWART) IL","Submitted","8411 S HOLLAND RD","60620","4.0","false","CHATHAM","Retail Store","191,204","2007","1",,"74","4,287,082.5","3,933,227.1","0","0",,"70.9","139.2","75.9","144.4","821.2","7.1","41.74032788","-87.63113941","POINT (-87.63113941 41.74032788)","2021-119914"
"2021","251229","210 East Pearson Condominium Association","Submitted","210 E Pearson","60611","4.0","false","NEAR NORTH SIDE","Multifamily Housing","104,142","1926","1",,"71","1,616,056.3","7,483,439","0","0",,"87.4","118.9","94.1","124.7","628.3","6","41.89778059","-87.62117844","POINT (-87.62117844 41.89778059)","2021-251229"
"2021","256759",,"Not Submitted","1533 W.Warren Blvd",,"0.0","false",,,"57,390",,,,,,,,,,,,,,,,"41.88425","-87.63245","POINT (-87.63245 41.88425)","2021-256759"
"2021","116662","Lake Meadows 2","Submitted","533  E 33RD PL","60616","1.0","false","DOUGLAS","Multifamily Housing","107,500","1952","1",,"2","1,078,093.7","20,605,158.3","0","0",,"201.7","229.3","220","247.9","1,248.4","11.6","41.84550365","-87.63055693","POINT (-87.63055693 41.84550365)","2021-116662"
"2021","251397","John L Marsh Elementary School","Submitted","9804 S Exchange","60617","2.5","false","SOUTH DEERING","K-12 School","140,770","1910","2",,"52","3,581,777.7","5,116,980.2","0","0",,"61.8","109.4","65.9","113.7","783.4","5.6","41.717144","-87.552401","POINT (-87.552401 41.717144)","2021-251397"
"2021","256440","IIT Research Tower","Submitted","10 W 35th Street","60616","2.0","false","DOUGLAS","College/University","392,894","1964","1",,,"16,101,951.3","190,390","33,417,173.4","0",,"126.5","217.6","135.6","226.5","4,528.7","11.5","41.842325","-87.62715344","POINT (-87.62715344 41.842325)","2021-256440"
"2021","252088","Pueblo Commons Condominium Association","Submitted","8444 W Wilson Ave","60656","4.0","false","OHARE","Multifamily Housing","216,000","1960","4",,"96","1,250,822.5","10,163,700.3","0","0",,"52.8","65.6","57.2","69.7","718.5","3.3","41.96376382","-87.83852632","POINT (-87.83852632 41.96376382)","2021-252088"
"2021","159745","Clarendon Court Apartments","Submitted","4500 N CLARENDON AVE","60640","3.5","false","UPTOWN","Multifamily Housing","110,000","1980","1",,"60","3,078,445.3","5,571,445.6","0","0",,"78.6","131.5","83.5","136.7","735.6","6.7","41.96394063","-87.65039391","POINT (-87.65039391 41.96394063)","2021-159745"
"2021","244318","The Edge Lofts & Tower Condominium Association","Submitted","210 S Des Plaines St","60661","0.0","false","NEAR WEST SIDE","Multifamily Housing","353,135","2004","1",,,"0","0","0","0",,,,,,,,"41.87894567","-87.64445559","POINT (-87.64445559 41.87894567)","2021-244318"
"2021","251383","Mcnair Academy Center, Ronald E -CPS","Exempt","4820 W Walton St","60651",,"true","AUSTIN","K-12 School","98,596","2001","1",,,,,,,,,,,,,,"41.89802143","-87.7469857","POINT (-87.7469857 41.89802143)","2021-251383"
"2021","175824","Drexel - Avanath","Submitted","6140  S DREXEL AVE","60637","1.0","false","WOODLAWN","Multifamily Housing","105,309","1959","1",,"1","1,834,680.5","18,293,359.6","0","0",,"248.5","300.5","271.3","324.2","1,233.7","15.2","41.78046327","-87.6053081","POINT (-87.6053081 41.78046327)","2021-175824"
"2021","251690","Chicago Military Academy-Bronzeville -CPS","Exempt","3533 S Giles Ave","60653",,"true","DOUGLAS","K-12 School","121,900","1999","1",,,,,,,,,,,,,,"41.83033232","-87.61897054","POINT (-87.61897054 41.83033232)","2021-251690"
"2021","105551","THE CAROLAN APARTMENTS","Submitted","5480 S CORNELL AVE","60615","4.0","false","HYDE PARK","Multifamily Housing","129,149","1923","1",,"87","941,046.7","9,078,070.2","0","0",,"82.2","99.8","88.7","106","616.6","5.1","41.80224043","-87.60332678","POINT (-87.60332678 41.80224043)","2021-105551"
"2021","159419","Fifth Praire Shores, LLC","Submitted","2801 S King Dr","60616","2.0","false","DOUGLAS","Multifamily Housing","289,267","1960","1",,"24","4,915,381.8","31,046,600.2","0","0",,"124.3","160.3","135.3","170.2","2,351.1","8.1","41.84364282","-87.61673336","POINT (-87.61673336 41.84364282)","2021-159419"
"2021","120624","2641 West Harrison","Submitted","2641 W Harrison St","60612","1.0","false","EAST GARFIELD PARK","Other","55,754","2007","1",,,"3,219,897.6","2,799,133","0","0",,"108","214.4","114.7","221.5","608.6","10.9","41.87340714","-87.69235672","POINT (-87.69235672 41.87340714)","2021-120624"
"2021","160241","Lake Meadows 6","Submitted","500 E 33rd St","60616","1.0","false","DOUGLAS","Multifamily Housing","363,053","1956","1",,"4","10,931,311","33,334,639.4","0","0",,"145.5","215.7","156.8","227.6","3,331.8","11","41.83491649","-87.61417553","POINT (-87.61417553 41.83491649)","2021-160241"
"2021","251428","Henson Elementary, Matthew A -CPS","Exempt","1326 S Avers Ave","60623",,"true","NORTH LAWNDALE","K-12 School","64,300","2005","1",,,,,,,,,,,,,,"41.86377597","-87.72184326","POINT (-87.72184326 41.86377597)","2021-251428"
"2021","251595","William P Nixon Elementary School","Submitted","2121 N Keeler Ave","60639","2.0","false","HERMOSA","K-12 School","130,113","1896","2",,"45","2,984,107.6","7,146,800.1","0","0",,"77.9","121.9","86.1","130.6","805.8","6.2","41.91952065","-87.73118053","POINT (-87.73118053 41.91952065)","2021-251595"
"2021","244931","The Metropolitan Place Condominium Association","Submitted","130 S Canal St","60606","4.0","false","NEAR WEST SIDE","Multifamily Housing","574,600","1949","1",,"97","8,125,548.3","16,666,344.6","0","0",,"43.1","70.1","45.7","71.7","2,045.8","3.6","41.87963192","-87.64039396","POINT (-87.64039396 41.87963192)","2021-244931"
"2021","159647","The Van der Rohe","Submitted","2933 N Sheridan Rd","60657","2.0","false","LAKE VIEW","Multifamily Housing","220,300","1952","1",,"45","4,959,539.9","12,858,000.5","0","0",,"92.1","141.5","98.6","146.5","1,391.3","7.2","41.93522966","-87.63890549","POINT (-87.63890549 41.93522966)","2021-159647"
"2021","116144","Pope Building Condominium Association","Submitted","633  S PLYMOUTH CT","60605","4.0","false","LOOP","Multifamily Housing","125,000","1895","1",,"83","2,154,465.1","4,929,930.2","0","0",,"56.7","89.7","59.8","91.7","569.6","4.6","41.86863212","-87.62730687","POINT (-87.62730687 41.86863212)","2021-116144"
"2021","175995","IL2125ZZ-QUINCY COURT BLDG","Submitted","11 W Quincy Ct","60604","4.0","false","LOOP","Office","120,592","1985","1",,"89","2,374,527.8","2,104,501.2","0","0",,"37.1","73.5","38.4","74.2","450.9","3.7","41.87874431","-87.63098611","POINT (-87.63098611 41.87874431)","2021-175995"
"2021","255757","Viceroy Chicago","Submitted","1118 N State Street","60610","3.0","false","NEAR NORTH SIDE","Hotel","134,668","2017","1",,"68","7,431,056.2","10,851,443.9","0","0",,"135.8","239.1","137.6","238.2","1,637.7","12.2","41.9056301","-87.6322449","POINT (-87.6322449 41.9056301)","2021-255757"
"2021","234838","Michigan Avenue Tower II Condominium Association","Submitted","1400 S Michigan Ave","60605","3.0","false","NEAR SOUTH SIDE","Multifamily Housing","469,949","2008","1",,"61","10,214,507.8","13,724,494.1","0","0",,"69.6","125","73.5","129.1","2,187.9","6.4","41.86378484","-87.62455468","POINT (-87.62455468 41.86378484)","2021-234838"
"2021","251409","Dewey Elementary Academy of Fine Arts","Submitted","5401 S Union Ave","60609","1.5","false","NEW CITY","K-12 School","86,191","1900","2",,"32","2,598,155.1","4,492,300.2","0","0",,"82.3","139.1","89.6","149","609.7","7.1","41.796083","-87.642718","POINT (-87.642718 41.796083)","2021-251409"
"2021","256667","Oakwood Court","Submitted","6547 N Harlem Avenue",,"4.0","false",,"Multifamily Housing","134,153","1970","1",,"97","729,632.3","4,180,975.7","0","0",,"43","56.4","45.8","58.4","326.3","2.9","41.88425","-87.63245","POINT (-87.63245 41.88425)","2021-256667"
"2021","175242","C5870LAK (22233)","Submitted","5870  W LAKE ST","60644","3.0","false","AUSTIN","Multifamily Housing","50,000","1965","1",,"49","941,459.5","2,845,593.1","0","0",,"75.7","112.5","79.4","115.3","285.6","5.7","41.88039405","-87.75826967","POINT (-87.75826967 41.88039405)","2021-175242"
"2021","160284","1251/1255 S. Michigan","Submitted","1255 S Michigan Ave","60605","1.5","false","NEAR SOUTH SIDE","Multifamily Housing","642,408","2006","2",,"40","13,612,225.2","38,763,000.6","0","0",,"84.7","127.4","88.7","130.9","4,003.1","6.5","41.86623341","-87.62362373","POINT (-87.62362373 41.86623341)","2021-160284"
"2021","254167","Simpson Living Learning Center-ID# 254167","Submitted","6333 N Winthrop Ave","60660","3.0","false","Edgewater","Residence Hall/Dormitory","117,481","1991","1",,,"4,895,841.3","6,460,761.3","0","0",,"96.7","174.4","103.8","181.9","1,042.4","8.9","41.99740324","-87.65829455","POINT (-87.65829455 41.99740324)","2021-254167"
"2021","117398","Circle Park","Submitted","1111  S ASHLAND AVE","60607","4.0","false","NEAR WEST SIDE","Multifamily Housing","389,174","1982","17",,"100","4,607,851.4","1,859,092.7","0","0",,"16.6","38.2","17.3","40.2","756.9","1.9","41.87399385","-87.651678","POINT (-87.651678 41.87399385)","2021-117398"
"2021","132017","1300 Dearborn","Submitted","1300 1310 N DEARBORN ST","60610","4.0","false","NEAR NORTH SIDE","Retail Store","60,000","1915","1",,"99","753,611.9","1,560,690","0","0",,"38.6","62.5","38.8","63.1","190.5","3.2","41.90614898","-87.63008406","POINT (-87.63008406 41.90614898)","2021-132017"
"2021","256797","Algonquin Venture Real Estate LLC","Submitted","1135 W SHERIDAN RD",,"3.5","false","Edgewater","Multifamily Housing","100,160","2019","1",,"59","3,386,669.3","927,300","0","0",,"43.1","104.4","46.2","111.7","533","5.3","41.88425","-87.63245","POINT (-87.63245 41.88425)","2021-256797"
"2021","173723","(IL1045) - 1260 Astor Building Corporation","Submitted","1260  N ASTOR ST","60610","4.0","false","NEAR NORTH SIDE","Multifamily Housing","95,948","1931","1",,,"1,651,828.4","5,151,956.5","0","0",,"70.9","104.6","70.2","102.6","509.6","5.3","41.9037528","-87.63558845","POINT (-87.63558845 41.9037528)","2021-173723"
"2021","251547","Matthew Gallistel Elementary Language Academy","Submitted","10347 S Ewing Ave","60617","3.0","false","EAST SIDE","K-12 School","94,577","1897","4",,"63","1,943,596.3","4,474,350","0","0",,"67.9","107.2","75","114.7","515.3","5.4","41.70690075","-87.53493184","POINT (-87.53493184 41.70690075)","2021-251547"
"2021","252049","Cobb Hall","Submitted","5811 - 5827 S Ellis Ave","60637","3.0","false","HYDE PARK","College/University","80,082","1892","1",,,"1,306,399.2","5,658","5,412,939.1","2,967,840",,"121","160.8","119.6","160.4","702.7","8.8","41.78898211","-87.6009439","POINT (-87.6009439 41.78898211)","2021-252049"
"2021","134735","Searle Chemistry Laboratory","Submitted","5735 S Ellis Ave","60637","1.0","false","HYDE PARK","Laboratory","85,570","2009","1",,,"12,682,257.3","66,036","18,677,659","18,913,201.4",,"588.3","879.5","576","873.9","4,051.8","47.4","41.79059152","-87.60101889","POINT (-87.60101889 41.79059152)","2021-134735"
"2021","256407","8795","Submitted","340 E Superior Street","60611","1.0","false","NEAR NORTH SIDE","College/University","187,974","1925","1",,,"8,560,332.7","20,905,747","0","0",,"156.8","244.3","165.4","253.3","2,333","12.4","41.89837","-87.62281702","POINT (-87.62281702 41.89837)","2021-256407"
"2021","156373","225 W. Ohio","Submitted","225 W Ohio St","60654","3.5","false","NEAR NORTH SIDE","Office","60,892","1907","1",,"76","1,335,736.9","1,543,931.3","0","0",,"47.3","88","49.9","90","272.8","4.5","41.89234316","-87.63534055","POINT (-87.63534055 41.89234316)","2021-156373"
"2021","228455","Hemingway House Condominium Association","Submitted","1850-1856 N Clark St","60614","2.0","false","LINCOLN PARK","Multifamily Housing","246,000","1969","1",,"24","6,358,623.7","17,582,732.1","0","0",,"124.6","188.8","131.6","194.5","1,842.1","9.6","41.91645312","-87.63490931","POINT (-87.63490931 41.91645312)","2021-228455"
"2021","251908","Pilsen Comm Academy -CPS","Exempt","1420 W 17th St","60608",,"true","LOWER WEST SIDE","K-12 School","81,769","1986","1",,,,,,,,,,,,,,"41.85902701","-87.66243324","POINT (-87.66243324 41.85902701)","2021-251908"
"2021","103617","33 E Congress","Submitted","33 E Congress Pkwy","60605","3.0","false","LOOP","College/University","153,876","1925","0",,,"6,397,677.4","4,061,905","0","0",,"68","144.1","72.1","148.5","1,129.5","7.3","41.87540112","-87.62651136","POINT (-87.62651136 41.87540112)","2021-103617"
"2021","240019","(IL298) - 1555 Astor Condo","Submitted","1555 N Astor St","60610","2.0","false","NEAR NORTH SIDE","Multifamily Housing","383,962","1974","1",,"26","17,486,104.2","3,570,480.1","0","0",,"68","170.2","72.1","181.6","2,687.1","8.7","41.91063947","-87.62728476","POINT (-87.62728476 41.91063947)","2021-240019"
"2021","107939",,"Not Submitted","5040 N KENMORE AVE","60640","0.0","false","UPTOWN",,"90,528",,,,,,,,,,,,,,,,"41.97223008","-87.6645957","POINT (-87.6645957 41.97223008)","2021-107939"
"2021","160319","500 Lake Shore Drive","Submitted","500 N Lake Shore Dr","60611","4.0","false","NEAR NORTH SIDE","Multifamily Housing","892,542","2013","1",,"87","17,371,730.6","14,477,651.3","0","0",,"44.4","89.1","45.6","89.4","3,250.1","4.5","41.892001","-87.614665","POINT (-87.614665 41.892001)","2021-160319"
"2021","101793","Wrightwood","Submitted","625  W WRIGHTWOOD AVE","60614","4.0","false","LINCOLN PARK","Multifamily Housing","88,000","1965","1",,"89","1,214,865.8","2,662,820.7","0","0",,"44.1","70.4","46.1","71.8","315","3.6","41.92201051","-87.65461957","POINT (-87.65461957 41.92201051)","2021-101793"
"2021","244387","Regatta Condominium Association","Submitted","420 E Waterside Dr","60601","4.0","false","LOOP","Multifamily Housing","640,423","2006","1",,"63","12,172,699","22,844,938.6","0","0",,"77.4","128.4","81.5","131.9","2,952","6.5","41.88718713","-87.61626502","POINT (-87.61626502 41.88718713)","2021-244387"
"2021","172126",,"Not Submitted","1340 1350 W FULLERTON AVE","60614","0.0","false","LINCOLN PARK",,"128,002",,,,,,,,,,,,,,,,"41.92201051","-87.65461957","POINT (-87.65461957 41.92201051)","2021-172126"
"2021","159310","Arrive Lex - Trinity","Submitted","2138 S Indiana Ave","60616","1.0","false","NEAR SOUTH SIDE","Multifamily Housing","451,466","2009","2",,"11","16,763,196.9","19,755,812.6","0","0",,"94.3","174.8","94.3","174.8","3,443.6","8.9","41.85321746","-87.62304215","POINT (-87.62304215 41.85321746)","2021-159310"
