"Data Year","ID","Property Name","Reporting Status","Address","ZIP Code","Chicago Energy Rating","Exempt From Chicago Energy Rating","Community Area","Primary Property Type","Gross Floor Area - Buildings (sq ft)","Year Built","# of Buildings","Water Use (kGal)","ENERGY STAR Score","Electricity Use (kBtu)","Natural Gas Use (kBtu)","District Steam Use (kBtu)","District Chilled Water Use (kBtu)","All Other Fuel Use (kBtu)","Site EUI (kBtu/sq ft)","Source EUI (kBtu/sq ft)","Weather Normalized Site EUI (kBtu/sq ft)","Weather Normalized Source EUI (kBtu/sq ft)","Total GHG Emissions (Metric Tons CO2e)","GHG Intensity (kg CO2e/sq ft)","Latitude","Longitude","Location","Row_ID"
"2022","256888",,"Submitted Data","318 N CARPENTER ST","60607","4.0","false",,"Office","104,849","2019","1",,"98","1,669,219.6","1,726,089.1","0","0",,"32.4","61.9","32.8","61.4","311.5","3","41.88736471233","-87.65350531714","POINT (-87.653505317143 41.88736471232649)","2022-256888"
"2022","256882",,"Submitted Data","1648 W DIVISION ST","60622","1.5","false",,"Multifamily Housing","106,888","2020","1",,"39","1,461,855.9","8,176,399.5","0","0",,"105","138.1","108.6","139.8","638.8","7","41.90342440538","-87.6694045778","POINT (-87.66940457779671 41.903424405382026)","2022-256882"
"2022","160184","29 E. Madison LLC","Submitted Data","29 E Madison St","60602","2.5","false","LOOP","Office","240,076","1904","1",,"59","11,057,421.2","17,039,500","0","0",,"117","203.5","122.7","209.4","2,361.5","9.8","41.88196533025","-87.62679322159","POINT (-87.62679322159418 41.881965330252534)","2022-160184"
"2022","134776","University Club of Chicago","Submitted Data","76 E Monroe St","60603","1.0","false","LOOP","Hotel","144,036","1907","1",,,"13,336,595.5","26,575,349.5","0","0",,"277.1","453","282.4","455.2","3,277.6","22.8","41.88092403509","-87.62493419985","POINT (-87.62493419985192 41.88092403509479)","2022-134776"
"2022","256963",,"Not Submitted","4351 S Drexel Boulevard","60653","0.0","false",,,"62,000",,,,,,,,,,,,,,,,"41.81534262157","-87.60387350237","POINT (-87.60387350237015 41.815342621567204)","2022-256963"
"2022","128321",,"Not Submitted","2315  W LEMOYNE ST","60622","0.0","false","WEST TOWN",,"76,497",,,,,,,,,,,,,,,,"41.90840637741","-87.68543081077","POINT (-87.68543081077131 41.90840637741184)","2022-128321"
"2022","256830",,"Not Submitted","717 S. Wells",,"0.0","false",,,"100,000",,,,,,,,,,,,,,,,"41.87296747272","-87.63344780864","POINT (-87.63344780864057 41.87296747271569)","2022-256830"
"2022","101547","Mercy Chicago - Hospital","Not Submitted","2525 S Michigan Ave","60616","0.0","false","NEAR SOUTH SIDE",,"750,000",,,,,,,,,,,,,,,,"41.84671695665","-87.62336972761","POINT (-87.62336972761213 41.84671695664648)","2022-101547"
"2022","101757","IL0000FC - Chicago Federal Ctr","Submitted Data","219 S Dearborn","60604","0.0","false","LOOP",,"3,176,860",,,,,,,,,,,,,,,,"41.87896683615","-87.6291933561","POINT (-87.62919335609855 41.87896683614633)","2022-101757"
"2022","101559","IL0303ZZ - Metcalf Federal Bldg","Submitted Data","77 W Jackson","60604","0.0","false","LOOP",,"839,825",,,,,,,,,,,,,,,,"41.87804100376","-87.63049344911","POINT (-87.63049344911161 41.87804100375637)","2022-101559"
"2022","102160","108 North State Street, LLC","Not Submitted","108 N State St","60602","0.0","false","LOOP",,"1,162,380",,,,,,,,,,,,,,,,"41.88342263701","-87.62802165208","POINT (-87.62802165207536 41.88342263701488)","2022-102160"
"2022","251248","Skybridge CA","Not Submitted","737 W Washington Blvd","60661","0.0","false","NEAR WEST SIDE",,"875,999",,,,,,,,,,,,,,,,"41.88303934238","-87.64717363846","POINT (-87.64717363845762 41.883039342376286)","2022-251248"
"2022","256568","Vista Tower","Not Submitted","363 E Wacker Dr","60601","0.0","false","Loop",,"1,782,886",,,,,,,,,,,,,,,,"41.88746439665","-87.61786023107","POINT (-87.61786023106754 41.88746439664589)","2022-256568"
"2022","101794","225 W Wacker","Not Submitted","225 W Wacker Dr","60606","0.0","false","LOOP",,"810,498",,,,,,,,,,,,,,,,"41.88670922203","-87.63471089946","POINT (-87.6347108994595 41.88670922202607)","2022-101794"
"2022","250004","Kennedy-King College","Not Submitted","6301 S Halsted Ave","60621","0.0","false","ENGLEWOOD",,"741,244",,,,,,,,,,,,,,,,"41.7796613369","-87.64463773882","POINT (-87.64463773881644 41.779661336898904)","2022-250004"
"2022","242935","The New York Private Residences","Submitted Data","3660 N Lake Shore Dr","60613","0.0","false","LAKE VIEW",,"748,762",,,,,,,,,,,,,,,,"41.95017256463","-87.64454815815","POINT (-87.6445481581548 41.95017256462572)","2022-242935"
"2022","100856","United Center","Not Submitted","1901 W Madison St","60612","0.0","false","NEAR WEST SIDE",,"2,289,000",,,,,,,,,,,,,,,,"41.8812414568","-87.67428253395","POINT (-87.67428253395332 41.881241456803345)","2022-100856"
"2022","102545","Chicago Vocational Career Academy -CPS","Exempt","2106 E 87th St","60617",,"true","AVALON PARK",,"684,248",,,,,,,,,,,,,,,,"41.73720538065","-87.57299104146","POINT (-87.57299104146023 41.737205380648014)","2022-102545"
"2022","101742","James R Thompson Center","Not Submitted","100 W Randolph St","60601","0.0","false","LOOP",,"1,193,163",,,,,,,,,,,,,,,,"41.88458626715","-87.63101044589","POINT (-87.63101044588599 41.88458626715456)","2022-101742"
"2022","256658","Midpointe Apartments","Submitted Data","4050 West 115th Street",,"4.0","false",,"Multifamily Housing","393,938","1973","8",,"75","6,388,293.5","20,841,006.3","0","0",,"69.1","101","71.9","102.6","1,948.4","4.9","41.68404416098","-87.72196287522","POINT (-87.72196287522412 41.68404416097816)","2022-256658"
"2022","250062","RJ Quinn Academy","Submitted Data","558 W De Koven St","60607","2.0","false","NEAR WEST SIDE","Adult Education","66,285","1961","1",,,"2,649,529.2","3,322,169.7","0","0",,"90.1","164.5","91.9","165.6","525.4","7.9","41.86911730778","-87.64134962811","POINT (-87.64134962810887 41.869117307784904)","2022-250062"
"2022","101545",,"Submitted Data","849 863 W BUENA AVE","60613","2.0","false","UPTOWN","Multifamily Housing","51,163","1925","1",,"50","541,560.1","4,310,877.6","0","0",,"94.8","118.1","101.2","123.8","300.3","5.9","41.95835278316","-87.65180597369","POINT (-87.65180597369445 41.95835278315766)","2022-101545"
"2022","160438","155 North Wacker","Submitted Data","155 N Wacker Dr","60606","4.0","false","LOOP","Office","1,484,327","2009","1",,"75","63,482,520.5","0","0","29,929,202.7",,"66.4","145.8","64.4","144.9","9,938.8","7.1","41.88461561705","-87.6366823578","POINT (-87.63668235780031 41.88461561705127)","2022-160438"
"2022","157280","Noble Square Cooperative","Submitted Data","1165 N MILWAUKEE AVE","60642","2.5","false","WEST TOWN","Multifamily Housing","284,850","1969","1",,"59","5,337,441.6","22,518,851.5","0","0",,"97.8","135.5","101.6","138.6","1,899.1","6.7","41.90300503924","-87.66570654445","POINT (-87.66570654445466 41.903005039235026)","2022-157280"
"2022","251446","Randolph Elementary -CPS","Exempt","7316 S Hoyne Ave","60636",,"true","WEST ENGLEWOOD",,"78,450",,,,,,,,,,,,,,,,"41.76059741181","-87.67600175473","POINT (-87.67600175472701 41.76059741181121)","2022-251446"
"2022","103871",,"Submitted Data","111 S PEORIA ST","60607","4.0","false","NEAR WEST SIDE","Multifamily Housing","255,100","2017","1",,"96","4,178,418.8","6,607,850.3","0","0",,"47.8","82.5","49.4","82.9","901.3","4","41.8800879626","-87.64949931059","POINT (-87.64949931059303 41.88008796259812)","2022-103871"
"2022","256630","The Residences at 8 East Huron","Submitted Data","8 E Huron St",,"1.0","false",,"Multifamily Housing","196,844","2017","1",,"15","6,025,888.9","9,583,179.9","0","0",,"91","157.1","91.8","156.1","1,302.7","7.6","41.89499060704","-87.62782919767","POINT (-87.62782919767419 41.89499060703644)","2022-256630"
"2022","113752",,"Submitted Data","1540  N STATE PKWY","60610","4.0","false","NEAR NORTH SIDE","Multifamily Housing","105,500","1970","1",,"98","1,336,010.7","4,965,839.6","0","0",,"59.7","84.9","62.6","86.7","439.7","4.2","41.91072723614","-87.62901846282","POINT (-87.62901846282452 41.910727236140296)","2022-113752"
"2022","109191","Edgewater Presbyterian Church","Not Submitted","1020 W BRYN MAWR","60660","0.0","false","EDGEWATER",,"62,500",,,,,,,,,,,,,,,,"41.98380209579","-87.65613163038","POINT (-87.65613163038387 41.98380209579369)","2022-109191"
"2022","252303",,"Not Submitted","6236-44 S King Dr","60637","0.0","false","WASHINGTON PARK",,"50,000",,,,,,,,,,,,,,,,"41.78095488642","-87.61578866043","POINT (-87.6157886604307 41.78095488641807)","2022-252303"
"2022","250145","180 N Wabash Ave","Submitted Data","180 N Wabash Ave","60601","1.0","false","LOOP","Office","162,153","1919","1",,"27","10,711,083.6","8,663,451.7","0","0",,"119.5","241.1","121","240.2","1,871","11.5","41.88535370398","-87.62641328541","POINT (-87.62641328540737 41.885353703982936)","2022-250145"
"2022","251221","211 W Wacker Dr","Submitted Data","211 W Wacker Dr","60606","3.5","false","LOOP","Office","158,063","1927","1",,"72","5,181,368","7,886,636.6","0","0",,"82.7","144.2","85.1","144.6","1,101.4","7","41.88670787976","-87.63431854508","POINT (-87.63431854507897 41.88670787976228)","2022-251221"
"2022","100179","Saint Anthony Hospital - Main Hospital","Submitted Data","2875 W 19th St","60623","0.0","false","SOUTH LAWNDALE","Hospital (General Medical & Surgical)","450,612","1897","1",,,"15,191,302.2","0","0","0",,,,,,,,"41.8554028935","-87.69870754487","POINT (-87.69870754487314 41.85540289350027)","2022-100179"
"2022","254049","Farcroft by the Lake","Submitted Data","1337 W Fargo Ave","60626","4.0","false","Rogers Park","Multifamily Housing","115,362","1928","1",,"79","2,708,425.8","3,944,036.5","0","0",,"57.7","101.6","58.4","101.1","566.2","4.9","42.01706508915","-87.66474749058","POINT (-87.66474749058055 42.0170650891458)","2022-254049"
"2022","236345","The Private Residences at Ontario Place Condominiu","Submitted Data","10 E Ontario St","60611","1.0","false","NEAR NORTH SIDE","Multifamily Housing","690,169","1983","1",,"11","39,802,699.9","12,723,426","0","0",,"107","254.2","108.6","257.6","5,918.4","12.1","41.89338886697","-87.62770240071","POINT (-87.62770240071154 41.89338886697453)","2022-236345"
"2022","254009","Maple Court Apartments","Submitted Data","1120 1126 E 47th St","60653","1.0","false","Kenwood","Multifamily Housing","50,760","1915","1",,"15","445,867.4","6,659,899.7","0","0",,"140","162.4","149.8","171.8","412.5","8.1","41.8097340831","-87.59839106099","POINT (-87.59839106098786 41.80973408310273)","2022-254009"
"2022","243913","990 North Lake Shore Drive","Submitted Data","990 N Lake Shore Dr","60611","1.0","false","NEAR NORTH SIDE","Multifamily Housing","331,127","1973","1",,"16","12,489,242.8","10,220,816.8","0","0",,"76.6","154.1","79.6","158","2,187.9","7.4","41.90073326883","-87.61985707754","POINT (-87.61985707754388 41.900733268826365)","2022-243913"
"2022","160299",,"Submitted Data","111 W WACKER DR","60601","3.0","false","LOOP","Multifamily Housing","940,002","2014","1",,"41","30,516,051.4","18,195,799.7","0","0",,"60.1","129","60.6","129","4,985.9","6.2","41.88670684204","-87.63140795865","POINT (-87.63140795865142 41.886706842036986)","2022-160299"
"2022","251687","Peirce Sch Of Intl Studies -CPS","Submitted Data","1423 W Bryn Mawr Ave","60660","1.0","false","EDGEWATER","K-12 School","141,588","1915","4",,"28","4,758,764.1","7,158,680.3","0","0",,"84.2","147.2","86.3","149.5","1,007","7.1","41.98342818918","-87.66586537292","POINT (-87.66586537292214 41.98342818917878)","2022-251687"
"2022","171887",,"Submitted Data","1824 N SPAULDING AVE","60647","4.0","false","LOGAN SQUARE","Multifamily Housing","65,000","2015","1",,"86","981,628","3,244,725.2","0","0",,"65","94.7","65.5","93.2","301.6","4.6","41.91448731103","-87.71035194312","POINT (-87.7103519431192 41.9144873110274)","2022-171887"
"2022","256778",,"Not Submitted","3939 W DEVON AVE","60659","0.0","false","Forest Glen",,"50,000",,,,,,,,,,,,,,,,"41.99713335054","-87.72785031805","POINT (-87.72785031804918 41.997133350542754)","2022-256778"
"2022","175978",,"Submitted Data","6700  S KEATING AVE","60629","4.0","false","WEST LAWN","Senior Living Community","120,000","2017","1",,"85","3,469,219.3","4,911,300.4","0","0",,"69.8","123.9","71.6","125.8","717.8","6","41.77106958829","-87.74052887603","POINT (-87.74052887602656 41.771069588287695)","2022-175978"
"2022","255740","The Van Buren","Submitted Data","808 W Van Buren","60607","1.0","false","NEAR WEST SIDE","Multifamily Housing","125,766","2018","1",,"22","4,665,641.8","7,631,923.3","0","0",,"104.6","179.3","108","182.8","1,019.9","8.7","41.87677516344","-87.64761342828","POINT (-87.64761342827666 41.876775163443966)","2022-255740"
"2022","116752","Ike Sims Village","Submitted Data","3333  W MAYPOLE AVE","60624","2.0","false","EAST GARFIELD PARK","Multifamily Housing","91,511","1981","1",,"28","3,783,873.8","2,080,705.3","0","0",,"75.4","164.3","76.7","167.1","608.9","7.8","41.88346519171","-87.71003990907","POINT (-87.71003990906787 41.883465191706854)","2022-116752"
"2022","132388",,"Not Submitted","3913 3959 W MADISON ST","60624","0.0","false","WEST GARFIELD PARK",,"57,100",,,,,,,,,,,,,,,,"41.88064232752","-87.72366144657","POINT (-87.72366144656698 41.880642327523894)","2022-132388"
"2022","116336","LaSalle Private Residences","Submitted Data","1212 N LaSalle St","60610","3.0","false","NEAR NORTH SIDE","Multifamily Housing","471,954","1986","1",,"61","11,662,672.1","6,851,736.5","0","0",,"50.4","108.4","50.4","107.5","1,900.1","5.2","41.90429630125","-87.63308211662","POINT (-87.63308211662499 41.904296301251605)","2022-116336"
"2022","101682","8750 West Bryn Mawr Ave - Triangle Plaza","Submitted Data","8750 W Bryn Mawr Ave","60631","4.0","false","OHARE","Office","1,286,868","1985","1",,"86","31,846,235.2","186,167.5","0","0",,"41.7","116.2","42.3","118","4,204.5","5.5","41.98106319708","-87.84567441592","POINT (-87.84567441591551 41.98106319707633)","2022-101682"
"2022","251443","Madison Elementary -CPS","Exempt","7401 S Dorchester","60619",,"true","SOUTH SHORE",,"67,700",,,,,,,,,,,,,,,,"41.76045832","-87.59069968285","POINT (-87.59069968285279 41.7604583199955)","2022-251443"
"2022","101969","Chicago Temple Building","Submitted Data","77 W Washington","60602","2.5","false","LOOP","Office","238,531","1924","1",,"59","7,981,605","11,794,100.2","0","0",,"82.9","145.6","85.8","147.4","1,677.7","7","41.8831005395","-87.63033121192","POINT (-87.63033121191829 41.883100539501605)","2022-101969"
"2022","238712","899 South Plymouth Court Condominium Association","Submitted Data","899 S Plymouth Ct","60605","1.5","false","LOOP","Multifamily Housing","263,800","1980","1",,"40","10,805,846.2","5,789,635.4","0","0",,"62.9","137.7","64.3","140.4","1,730.8","6.6","41.87057299288","-87.62844790994","POINT (-87.62844790993732 41.87057299287796)","2022-238712"
"2022","125204","Reside on Morse","Submitted Data","1340  W MORSE AVE","60626","2.0","false","ROGERS PARK","Multifamily Housing","62,088","1967","2",,"46","1,661,671.1","5,625,168.7","0","0",,"117.4","170.1","120.4","171.9","517.6","8.3","42.00802983931","-87.66535497285","POINT (-87.66535497284883 42.00802983930751)","2022-125204"
"2022","159099","Sofitel Chicago Water Tower","Submitted Data","20 E Chestnut St","60611","1.0","false","NEAR NORTH SIDE","Hotel","377,000","2002","1",,"13","24,261,731.9","30,739,699.5","0","0",,"145.9","265.8","146.1","261.1","4,828.3","12.8","41.89844463668","-87.62740563977","POINT (-87.62740563976503 41.898444636675144)","2022-159099"
"2022","166134","John G Shedd Aquarium","Submitted Data","1200 S Lake Shore Dr","60605","1.0","false","NEAR SOUTH SIDE","Other","452,756","1929","1",,,"56,655,688","32,251,318.8","0","0",,"196.4","425.2","198.7","427.6","9,640.3","21.3","41.86748422716","-87.61915038338","POINT (-87.61915038338188 41.867484227164155)","2022-166134"
"2022","173874",,"Not Submitted","5400 5406 N KENMORE AVE","60640","0.0","false","EDGEWATER",,"81,600",,,,,,,,,,,,,,,,"41.98011626063","-87.6566645755","POINT (-87.656664575504 41.98011626062557)","2022-173874"
"2022","255020","Ace Hotel Chicago","Exempt","311 N MORGAN ST","60607",,"true","Near West Side",,"140,429",,,,,,,,,,,,,,,,"41.88712191392","-87.65203575962","POINT (-87.6520357596219 41.88712191392366)","2022-255020"
"2022","251334","Seton Hall","Submitted Data","2325 N Sheffield Ave","60614","2.0","false","LINCOLN PARK","College/University","50,174","1989","1",,,"2,130,637.1","3,745,124.1","0","0",,"117.1","197.3","122","202.4","479.6","9.6","41.92432721067","-87.65342424244","POINT (-87.65342424243978 41.92432721066951)","2022-251334"
"2022","160285","Long Grove House","Submitted Data","2001 S Michigan Ave","60616","3.0","false","NEAR SOUTH SIDE","Multifamily Housing","553,115","1969","1",,"65","8,555,232.4","39,077,568.2","0","0",,"97.2","132.6","102.1","136.6","3,202.4","6.5","41.85543199902","-87.62372821557","POINT (-87.62372821557055 41.8554319990211)","2022-160285"
"2022","156942","Burton-Judson Courts","Submitted Data","1005 E 60th St","60637","3.0","false","WOODLAWN","Residence Hall/Dormitory","201,402","1931","1",,"68","2,852,269","0","14,194,821.6","0",,"84.6","124.4","89.7","130.6","1,318.2","6.5","41.78582054292","-87.60093895756","POINT (-87.60093895755584 41.78582054292253)","2022-156942"
"2022","256408",,"Submitted Data","320 E Superior Street","60611","1.0","false","NEAR NORTH SIDE","Laboratory","186,803","1965","1",,,"30,657,238.7","38,345,680.1","0","0",,"369.4","675.1","364.8","656.6","6,074.7","32.5","41.89592410824","-87.6195455257","POINT (-87.61954552570175 41.895924108238226)","2022-256408"
"2022","109576",,"Not Submitted","7200 7216 N RIDGE BLVD","60645","0.0","false","WEST RIDGE",,"76,937",,,,,,,,,,,,,,,,"42.01238319182","-87.68325707971","POINT (-87.68325707971205 42.012383191822174)","2022-109576"
"2022","251996","Prairie Point Condominium","Submitted Data","1600 S Prairie Ave","60616","1.5","false","NEAR SOUTH SIDE","Multifamily Housing","357,000","2006","1",,"39","7,152,087.6","18,654,526.1","0","0",,"95.9","147.2","98.6","147.4","1,991.5","7.4","41.86017040462","-87.62097159169","POINT (-87.62097159169389 41.860170404620284)","2022-251996"
"2022","256890",,"Submitted Data","455 E WATERSIDE DR","60601","4.0","false",,"Multifamily Housing","681,529","2021","1",,"83","13,321,451.2","19,583,790.4","0","0",,"64.3","113","65.7","112.4","2,794.8","5.5","41.88683541771","-87.61533228623","POINT (-87.61533228622845 41.88683541770806)","2022-256890"
"2022","251551","Murphy Elementary -CPS","Submitted Data","3539 W Grace St","60618","1.5","false","IRVING PARK","K-12 School","85,287","1924","1",,"35","1,481,019.6","7,574,559.8","0","0",,"106.2","141.9","112.2","148.2","597.4","7","41.95005034197","-87.7168294858","POINT (-87.7168294858019 41.950050341973395)","2022-251551"
"2022","243071","1620 S. Michigan Ave Condo Association","Submitted Data","1620 S Michigan Ave","60616","1.0","false","NEAR SOUTH SIDE","Multifamily Housing","306,737","2006","1",,,"6,919,342.2","16,015,400.4","0","0",,"91.1","143.8","92.9","143.1","1,762","7","41.85964085467","-87.6241201784","POINT (-87.62412017840215 41.85964085466748)","2022-243071"
"2022","112437",,"Submitted Data","415 421 W ALDINE AVE","60657","4.0","false","LAKE VIEW","Multifamily Housing","140,000","1927","1",,"83","1,660,138.6","9,255,186.9","0","0",,"78","102.6","82.5","106.2","710.3","5.1","41.94217111769","-87.64055913334","POINT (-87.64055913334448 41.942171117689924)","2022-112437"
"2022","129963",,"Exempt","2290 S Grove Street","60616",,"true","ARMOUR SQUARE",,"59,412",,,,,,,,,,,,,,,,"41.85038540307","-87.64069279078","POINT (-87.64069279077634 41.850385403070945)","2022-129963"
"2022","101920","Wrigley Building","Submitted Data","410 N MICHIGAN AVE","60611","4.0","false","NEAR NORTH SIDE","Office","661,275","1921","1",,"86","21,545,659.2","17,350,480.5","0","0",,"58.8","118.8","59.5","118.1","3,759.4","5.7","41.88987479126","-87.62425976144","POINT (-87.62425976144404 41.8898747912625)","2022-101920"
"2022","254567","Moment Chicago","Submitted Data","545 McClurg Ct","60611","3.0","false","Near North Side","Multifamily Housing","670,539","2017","1",,"61","22,701,195.6","10,862,295.4","0","0",,"62","138.5","62.7","139.9","3,567","6.6","41.89238949917","-87.61756080338","POINT (-87.61756080338456 41.89238949917251)","2022-254567"
"2022","174164",,"Not Submitted","1380  E HYDE PARK BLVD","60615","0.0","false","KENWOOD",,"160,000",,,,,,,,,,,,,,,,"41.80252988698","-87.59193633932","POINT (-87.59193633932374 41.80252988698073)","2022-174164"
"2022","251281","40 E Oak St","Submitted Data","40 E Oak St","60611","2.0","false","NEAR NORTH SIDE","Multifamily Housing","154,113","1928","1",,"46","2,813,444.4","15,262,838.1","0","0",,"117.3","155.1","124.4","160.6","1,181.3","7.7","41.90088008552","-87.62685888861","POINT (-87.62685888861459 41.90088008552061)","2022-251281"
"2022","159981","7447 South Shore, LLC - South Shore Beach Apartments","Submitted Data","7447 S South Shore Dr","60649","1.5","false","SOUTH SHORE","Multifamily Housing","381,983","1968","1",,"33","7,335,612.2","28,083,262.3","0","0",,"105.7","149.3","108.8","150.7","2,457.8","7.3","41.76130547139","-87.55770551531","POINT (-87.55770551531141 41.761305471393655)","2022-159981"
"2022","252297","Lyndale Place","Submitted Data","2575 W Lyndale","60647","4.0","false","LOGAN SQUARE","Multifamily Housing","83,620","1924","1",,"98","1,182,317","2,569,411.8","0","0",,"44.9","71.9","46.4","73.5","292.2","3.5","41.92232920928","-87.69222252676","POINT (-87.69222252675809 41.92232920928405)","2022-252297"
"2022","112760",,"Submitted Data","2416 2458 W GREENLEAF AVE","60645","3.5","false","WEST RIDGE","Multifamily Housing","80,000","1927","1",,"57","464,782.1","8,415,500.4","0","0",,"111","126.7","116.9","133","508.2","6.4","42.00961493979","-87.69060986927","POINT (-87.6906098692729 42.00961493978809)","2022-112760"
"2022","175421",,"Submitted Data","7219  N SHERIDAN RD","60626","1.0","false","ROGERS PARK","Multifamily Housing","52,998","1928","1",,"24","775,917.3","5,289,543.2","0","0",,"114.4","145.8","117.7","147.8","383.2","7.2","42.01338119245","-87.66359877312","POINT (-87.66359877311648 42.01338119245121)","2022-175421"
"2022","111959","Dickens Place Condominium Association","Submitted Data","2100  N RACINE AVE","60614","4.0","false","LINCOLN PARK","Multifamily Housing","87,600","1900","1",,"100","769,940.2","1,957,608","0","0",,"37.4","57.7","38","57.6","205.4","2.8","41.91993549832","-87.65842847907","POINT (-87.6584284790678 41.91993549831988)","2022-111959"
"2022","251320","Jewel Osco, 03376-Kinzie & Des Plaines","Submitted Data","370 N Desplaines St","60661","2.5","false","WEST TOWN","Supermarket/Grocery Store","65,000","2008","1",,"57","7,513,697.7","10,313,899.6","0","0",,"274.3","490.3","281.2","494.1","1,537.5","23.7","41.88891817356","-87.64447797293","POINT (-87.64447797292972 41.88891817356032)","2022-251320"
"2022","121038","Sherman Plaza","Not Submitted","163 W 87th St","60620","0.0","false","CHATHAM",,"187,780",,,,,,,,,,,,,,,,"41.73611245396","-87.62864507174","POINT (-87.6286450717373 41.73611245395929)","2022-121038"
"2022","175892",,"Not Submitted","4526  N SHERIDAN RD","60640","0.0","false","UPTOWN",,"96,960",,,,,,,,,,,,,,,,"41.96440189556","-87.65492251266","POINT (-87.654922512658 41.96440189556048)","2022-175892"
"2022","250122","Swedish Covenant Hospital Campus","Submitted Data","5145 N California Ave","60625","2.0","false","LINCOLN SQUARE","Mixed Use Property","1,397,263","1918","10",,"44","90,173,072.3","75,038,913.5","0","0",,"206.6","414.4","204.7","412.3","15,862.7","19.8","41.97533413581","-87.69875687452","POINT (-87.69875687452328 41.97533413581096)","2022-250122"
"2022","101826","Drexel Building","Not Submitted","8136 8142 S DREXEL AVE","60619","0.0","false","CHATHAM",,"66,888",,,,,,,,,,,,,,,,"41.74653764032","-87.60276600471","POINT (-87.60276600470702 41.746537640324526)","2022-101826"
"2022","101883","Omni Hotel","Submitted Data","676 N Michigan Ave","60611","1.0","false","NEAR NORTH SIDE","Hotel","440,281","1990","1",,"3","58,729,940.8","6,049,269.9","0","0",,"147.1","387.9","147.1","387.7","8,056.9","18.3","41.89482685257","-87.62439615716","POINT (-87.62439615715573 41.89482685257429)","2022-101883"
"2022","251560","Hampton Fine & Performing Arts -CPS","Submitted Data","3434 W 77th St","60652","1.0","false","ASHBURN","K-12 School","98,776","2000","1",,"12","5,147,060","4,097,419.7","0","0",,"93.6","189.5","95.7","189.6","895.6","9.1","41.75348432246","-87.70875286894","POINT (-87.70875286894322 41.75348432246293)","2022-251560"
"2022","114120",,"Submitted Data","1169 S PLYMOUTH CT","60605","2.5","false","LOOP","Multifamily Housing","138,000","1978","1",,"53","4,426,157.9","4,356,293.2","0","0",,"73.2","141.4","74.8","141.9","814.4","6.8","41.86816796955","-87.62838989439","POINT (-87.62838989438983 41.868167969554285)","2022-114120"
"2022","256430","Cunningham Hall","Not Submitted","3100 S Michigan Avenue","60616","0.0","false","DOUGLAS",,"70,269",,,,,,,,,,,,,,,,"41.83824952911","-87.62358836536","POINT (-87.6235883653638 41.838249529105866)","2022-256430"
"2022","113396","Surfside Condominium","Not Submitted","5815 N Sheridan Rd","60660","0.0","false","EDGEWATER",,"225,000",,,,,,,,,,,,,,,,"41.98782830709","-87.65517078153","POINT (-87.655170781532 41.98782830708625)","2022-113396"
"2022","175813",,"Submitted Data","4260  N BROADWAY ST","60613","4.0","false","UPTOWN","Multifamily Housing","137,900","2007","1",,"100","1,036,197.3","1,881,273.5","0","0",,"23.3","39","24.3","40","236.4","1.9","41.95985963166","-87.65409599508","POINT (-87.65409599507807 41.95985963166279)","2022-175813"
"2022","173733",,"Submitted Data","2336  N COMMONWEALTH AVE","60614","4.0","false","LINCOLN PARK","Multifamily Housing","120,755","1968","1",,"97","1,398,343.3","3,242,878","0","0",,"46.1","72.7","48.4","75.1","356.4","3.5","41.92490681064","-87.63823447333","POINT (-87.63823447332803 41.92490681063852)","2022-173733"
"2022","175046","East WrigleyView Village Condominiums","Submitted Data","737  W CORNELIA AVE","60657","1.0","false","LAKE VIEW","Multifamily Housing","51,030","1919","1",,"16","897,960","4,946,800.2","0","0",,"114.5","151.1","119.7","155.3","381","7.5","41.94533592147","-87.64845096271","POINT (-87.64845096271144 41.945335921467894)","2022-175046"
"2022","156609",,"Submitted Data","1360 N ASHLAND AVE","60622","4.0","false","WEST TOWN","Wholesale Club/Supercenter","147,776","2016","1",,"83","3,387,661.8","1,306,072.9","0","0",,"53.4","123.5","53.3","121.9","515.6","5.9","41.90679510984","-87.66773167006","POINT (-87.66773167006288 41.90679510984423)","2022-156609"
"2022","250147","820 W Jackson Blvd","Submitted Data","820 W Jackson Blvd","60607","1.0","false","NEAR WEST SIDE","Office","186,957.7","1915","1",,,"13,408,061.5","0","0","0",,"71.7","200.8","71.7","200.8","1,766","9.4","41.878043475","-87.64818021094","POINT (-87.64818021093538 41.878043475002826)","2022-250147"
"2022","251712","Penn Elementary -CPS","Exempt","1616 S Avers Ave","60623",,"true","NORTH LAWNDALE",,"158,325",,,,,,,,,,,,,,,,"41.8583699474","-87.72133608973","POINT (-87.72133608972533 41.85836994740216)","2022-251712"
"2022","117948","Symphony of Chicago West","Submitted Data","5130  W JACKSON BLVD","60644","2.0","false","AUSTIN","Senior Living Community","139,114","1980","1",,"21","4,499,001.6","13,219,880.1","0","0",,"160.5","239.8","164.3","240.7","1,294.8","11.7","41.87677135997","-87.75477136468","POINT (-87.75477136468453 41.87677135996502)","2022-117948"
"2022","175546",,"Submitted Data","2236 2296 N LINCOLN PARK WEST AVE","60614","4.0","false","LINCOLN PARK","Multifamily Housing","94,600","1910","1",,"89","1,718,804.1","4,312,483.1","0","0",,"63.8","98.7","65.7","99.5","455.4","4.8","41.92310169265","-87.636639486","POINT (-87.63663948599596 41.923101692647975)","2022-175546"
"2022","172765",,"Submitted Data","820  S PARK TER","60605","3.0","false","LOOP","Multifamily Housing","157,844","1979","1",,"62","2,609,966.6","12,149,700.2","0","0",,"93.5","127.1","99.1","133","989.1","6.3","41.87145980292","-87.6297274762","POINT (-87.62972747620356 41.871459802919055)","2022-172765"
"2022","242313","3150 CA","Not Submitted","3150 N Lake Shore Dr","60657","0.0","false","LAKE VIEW",,"553,150",,,,,,,,,,,,,,,,"41.93895290805","-87.63815991564","POINT (-87.63815991563948 41.938952908050794)","2022-242313"
"2022","172759",,"Submitted Data","161  W HARRISON ST","60605","4.0","false","LOOP","Multifamily Housing","198,000","1995","1",,"77","4,090,298.9","6,575,531.4","0","0",,"63.5","109.3","63.7","108.2","888","5.3","41.87438111044","-87.63280747758","POINT (-87.63280747758456 41.874381110443956)","2022-172759"
"2022","111000",,"Not Submitted","2740  W ARMITAGE AVE","60647","0.0","false","LOGAN SQUARE",,"60,000",,,,,,,,,,,,,,,,"41.91760780652","-87.69643287853","POINT (-87.69643287853188 41.91760780652425)","2022-111000"
"2022","252262","Humboldt Ridge Apartments","Not Submitted","1816 N St Louis Ave","60647","0.0","false","LOGAN SQUARE",,"45,108",,,,,,,,,,,,,,,,"41.91421837705","-87.71358428656","POINT (-87.7135842865605 41.914218377054205)","2022-252262"
"2022","172607",,"Submitted Data","1734 1740 N MARSHFIELD AVE","60622","4.0","false","WEST TOWN","Multifamily Housing","76,478","1993","1",,"96","732,999.7","2,731,827.7","0","0",,"48.9","69.4","49.7","69.4","241.6","3.4","41.91348409879","-87.66913845417","POINT (-87.66913845416519 41.9134840987878)","2022-172607"
"2022","252112","Pete's Cermak","Submitted Data","2526 W Cermak Ave","60608","1.0","false","SOUTH LAWNDALE","Supermarket/Grocery Store","74,000","2006",,,"26","11,664,255.5","12,227,980.2","0","0",,"322.9","614.9","326.5","613.4","2,185.8","29.5","41.85210065324","-87.68905111061","POINT (-87.68905111060724 41.85210065324028)","2022-252112"
"2022","101867","125 South Wacker","Submitted Data","125 S Wacker Dr","60606","3.0","false","LOOP","Office","641,962","1974","1",,"67","33,422,010","0","0","0",,"52.1","145.8","52.9","148.2","4,402.2","6.9","41.88001342713","-87.63657238451","POINT (-87.63657238450709 41.88001342713154)","2022-101867"
"2022","159896","Regents Park","Submitted Data","5020 - 5050 S Lake Shore Dr","60615","2.0","false","KENWOOD","Multifamily Housing","1,460,101","1972","1",,"42","30,613,092","109,683,594.1","0","0",,"96.1","137.6","99.5","139.7","9,858","6.8","41.80374725782","-87.58220896762","POINT (-87.58220896761574 41.803747257819744)","2022-159896"
"2022","235438",,"Submitted Data","5901 N SHERIDAN RD","60660","3.5","false","EDGEWATER","Multifamily Housing","287,688","1966","1",,"73","9,307,334.2","0","0","0",,"38.4","107.4","38.9","108.9","1,225.9","5.1","41.98925519891","-87.65521256059","POINT (-87.65521256058591 41.989255198913554)","2022-235438"
"2022","251620","Seward Communication Arts Academy -CPS","Submitted Data","4600 S Hermitage Ave","60609","4.0","false","NEW CITY","K-12 School","98,375","1894","3",,"76","1,207,684.2","5,191,739.9","0","0",,"65.1","89.8","68.2","93.1","434.8","4.4","41.81029631883","-87.66880777819","POINT (-87.66880777819493 41.810296318834936)","2022-251620"
"2022","109549",,"Submitted Data","1327 1337 W LUNT AVE","60626","1.5","false","ROGERS PARK","Multifamily Housing","59,768","1925","1",,"37","371,745","4,623,566.4","0","0",,"83.6","98.6","87.7","102.5","294.5","4.9","42.00903394068","-87.66476828065","POINT (-87.6647682806523 42.00903394067994)","2022-109549"
"2022","101217",,"Submitted Data","850  W EASTWOOD AVE","60640","4.0","false","UPTOWN","Multifamily Housing","244,164","1992","1",,"83","4,322,769.4","14,938,150","0","0",,"78.9","113.8","82","115.6","1,362.8","5.6","41.96652845322","-87.65171856394","POINT (-87.65171856394346 41.96652845322141)","2022-101217"
"2022","251627","Edison Park Elementary -CPS","Submitted Data","6220 N Olcott Ave","60631","1.5","false","NORWOOD PARK","K-12 School","60,475","1948","2",,"39","1,916,414.6","2,520,659.8","0","0",,"73.4","132.5","73.6","130.9","386.3","6.4","41.99422811537","-87.81380813708","POINT (-87.81380813707689 41.994228115372266)","2022-251627"
"2022","104879",,"Submitted Data","2600  N HAMPDEN CT","60614","3.5","false","LINCOLN PARK","Multifamily Housing","90,000","2005","1",,"79","2,656,906.6","0","0","0",,"40.9","114.5","40.8","114.2","350","5.4","41.92926863633","-87.64081059903","POINT (-87.64081059903047 41.929268636325595)","2022-104879"
"2022","256571",,"Not Submitted","175 S Wells St","60606","0.0","false","Loop",,"200,000",,,,,,,,,,,,,,,,"41.87941548981","-87.63360575851","POINT (-87.63360575851023 41.87941548981124)","2022-256571"
"2022","175735",,"Submitted Data","2021  S MORGAN ST","60608","4.0","false","LOWER WEST SIDE","Multifamily Housing","80,397","2010","1",,"95","1,735,135.1","1,218,628.2","0","0",,"40.9","85","41.3","84.9","293.3","4.1","41.85461475854","-87.65132209218","POINT (-87.65132209218405 41.85461475854118)","2022-175735"
"2022","101765","77 West Wacker Drive","Submitted Data","77 W Wacker Dr","60601","4.0","false","LOOP","Office","1,223,136","1992","1",,"75","50,799,353.3","0","0","0",,"42.9","120","42.8","119.8","6,691","5.6","41.88670773797","-87.63079457779","POINT (-87.6307945777937 41.88670773797291)","2022-101765"
"2022","114191","232 E Walton Condominium Association","Submitted Data","228 240 E WALTON ST","60611","4.0","false","NEAR NORTH SIDE","Multifamily Housing","105,000","1920","1",,"98","1,166,119.2","4,521,582.1","0","0",,"54.2","76.3","56.3","77.7","393.8","3.8","41.90017326986","-87.62081647276","POINT (-87.6208164727626 41.900173269863615)","2022-114191"
"2022","103716","The Palmer House Hotel","Submitted Data","17 E Monroe St","60603","3.5","false","LOOP","Hotel","1,749,427","1925","3",,"71","52,479,090.9","131,214,698.9","-4,360,181.4","-1,344,840",,"105","164.2","106.9","165.3","13,521.3","8","41.8806645784","-87.62708936444","POINT (-87.6270893644417 41.88066457839605)","2022-103716"
"2022","251920","Mayfair","Submitted Data","189 E Lake Shore Dr","60611","4.0","false","NEAR NORTH SIDE","Multifamily Housing","266,340","1924","1",,"94","5,862,166.8","5,705,893.5","0","0",,"43.4","84.1","45.1","85.9","1,075.2","4","41.90077286217","-87.62225511808","POINT (-87.62225511808359 41.90077286216828)","2022-251920"
"2022","158236","Renaissance Chicago Downtown","Submitted Data","1 W Wacker Dr","60601","2.5","false","LOOP","Hotel","537,323","1990","1",,"52","23,912,831.2","37,491,199.7","0","0",,"114.3","197.9","117.8","199.7","5,141","9.6","41.88670422865","-87.62805355978","POINT (-87.62805355978018 41.88670422864661)","2022-158236"
"2022","254008","Hyde Park Courtway","Submitted Data","4816 4828 S Dorchester Ave","60615","4.0","false","Kenwood","Multifamily Housing","69,540","1920","1",,"91","489,215.5","3,834,162.1","0","0",,"62.2","77.6","66.4","81.3","268.1","3.9","41.80733149329","-87.59208394634","POINT (-87.59208394633718 41.807331493289844)","2022-254008"
"2022","255010","Fletcher Jones Audi","Not Submitted","949 N ELSTON AVE","60642","0.0","false","West Town",,"442,844",,,,,,,,,,,,,,,,"41.89974386763","-87.65649545752","POINT (-87.65649545751845 41.899743867626114)","2022-255010"
"2022","257034",,"Submitted Data","9101 S Euclid Ave","60617","3.5","false",,"K-12 School","70,379","1959","3",,"77","839,352","2,890,160.1","0","0",,"53","76.5","54","77.6","264.1","3.8","41.72965644854","-87.57660534158","POINT (-87.57660534157822 41.729656448535366)","2022-257034"
"2022","106025",,"Submitted Data","640 644 N WABASH AVE","60611","3.0","false","NEAR NORTH SIDE","Hotel","63,000","1980","1",,"63","2,780,493.6","3,408,033.5","0","0",,"98.2","180.4","102.2","185.5","547.2","8.7","41.89369130701","-87.62692024021","POINT (-87.62692024021078 41.89369130700822)","2022-106025"
"2022","113933",,"Submitted Data","6927 6939 S CRANDON AVE","60649","3.5","false","SOUTH SHORE","Multifamily Housing","111,239","1927","1",,"59","484,011.7","11,673,930.8","0","0",,"109.3","122.4","117.1","130.6","683.8","6.1","41.76904696815","-87.569702642","POINT (-87.5697026420039 41.76904696814895)","2022-113933"
"2022","250079","Ada S Dennison-McKlinley Apts","Submitted Data","661 E 69th St","60637","3.5","false","WOODLAWN","Multifamily Housing","83,063","1968","1",,"59","1,740,154.3","6,427,639.8","0","0",,"98.3","139.9","104.2","146.1","570.6","6.9","41.76934839934","-87.60831590806","POINT (-87.6083159080587 41.769348399340565)","2022-250079"
"2022","160450","SoNo East","Submitted Data","840 W Blackhawk St","60642","2.0","false","NEAR NORTH SIDE","Multifamily Housing","392,548","2012","1",,"48","10,755,232.1","14,554,866.7","0","0",,"79.6","142.8","81.2","144.5","2,189.7","6.9","41.90865641035","-87.6498433391","POINT (-87.64984333909909 41.90865641035451)","2022-160450"
"2022","256545","The Hoxton","Submitted Data","200 N Green St","60607","2.0","false","Near West Side","Hotel","153,000","2019","1",,"46","7,715,879.2","14,353,637.3","0","0",,"144.2","239.7","147.3","240.7","1,778.7","11.6","41.88569919716","-87.64878908938","POINT (-87.64878908937915 41.885699197163355)","2022-256545"
"2022","102286","Illinois Masonic Medical Office Center","Submitted Data","3000 N HALSTED ST","60657","4.0","false","LAKE VIEW","Medical Office","142,955","1993","1",,"97","5,781,242.7","0","3,438,813.5","0",,"64.5","142.2","64.3","140.2","989.8","6.9","41.9364480108","-87.64929075151","POINT (-87.64929075151166 41.936448010797946)","2022-102286"
"2022","133159","Lurie Children's Lincoln Park Outpatient Center - Deming","Submitted Data","467 W Deming Pl","60614","1.0","false","LINCOLN PARK","Mixed Use Property","80,877","1972","1",,,"8,972,948","8,307,700","0","0",,"274.6","537.9","272.3","527.4","1,623.1","25.8","41.92887928708","-87.64136753583","POINT (-87.64136753582706 41.9288792870752)","2022-133159"
"2022","100438","Palmolive Building Condominium Association","Submitted Data","913 - 921 N Michigan Ave","60611","1.0","false","NEAR NORTH SIDE","Multifamily Housing","436,505","1929","1",,"9","21,105,151.6","29,367,050","0","0",,"127.1","226.4","127.7","226.1","4,339.7","10.9","41.89968227552","-87.62399351359","POINT (-87.62399351358822 41.89968227551929)","2022-100438"
"2022","172641","Symphony of Morgan Park","Submitted Data","10935 S HALSTED ST","60628","2.0","false","ROSELAND","Senior Living Community","77,713","1976","1",,"30","2,935,198.5","8,372,390","0","0",,"188.2","283.2","191.6","283.8","831.3","13.8","41.69494894628","-87.6423134098","POINT (-87.64231340979583 41.69494894627507)","2022-172641"
"2022","250101","Margaret Day Blake Apartments","Submitted Data","2140 N Clark St","60614","2.5","false","LINCOLN PARK","Multifamily Housing","76,384","1966","1",,"59","1,498,905.1","5,310,969.9","0","0",,"95.9","137.7","100.6","141.2","479.5","6.8","41.92122495817","-87.63799765552","POINT (-87.63799765552446 41.921224958170484)","2022-250101"
"2022","251383","Mcnair Academy Center, Ronald E -CPS","Exempt","4820 W Walton St","60651",,"true","AUSTIN",,"98,596",,,,,,,,,,,,,,,,"41.89784639686","-87.74674644723","POINT (-87.74674644722602 41.8978463968556)","2022-251383"
"2022","159651",,"Submitted Data","352 360 W WELLINGTON AVE","60657","3.5","false","LAKE VIEW","Multifamily Housing","158,320","1960","1",,"76","1,935,931","9,895,052.1","0","0",,"81.3","108.6","86.3","112.6","780.6","5.4","41.93669924764","-87.63906908161","POINT (-87.63906908161195 41.9366992476402)","2022-159651"
"2022","256607","The Edge on Broadway","Submitted Data","6149 N. Broadway",,"3.0","false",,"Multifamily Housing","91,557","2020","1",,"70","2,342,839.5","2,571,680.5","0","0",,"63.3","119.2","63.2","118.5","445.2","5.7","41.99373429886","-87.66023494382","POINT (-87.66023494381585 41.99373429885819)","2022-256607"
"2022","134280",,"Submitted Data","2512  N BOSWORTH AVE","60614","4.0","false","LINCOLN PARK","Multifamily Housing","54,000","1920","1",,"92","656,197.4","1,979,461.8","0","0",,"48.8","72.5","49.2","71.4","191.6","3.5","41.92734532722","-87.6671638827","POINT (-87.66716388269737 41.92734532721824)","2022-134280"
"2022","102125",,"Submitted Data","259 E Erie St","60611","4.0","false","NEAR NORTH SIDE","Medical Office","975,524","2014","1",,"75","46,719,793.2","43,974,039.3","0","0",,"131.1","255.8","132","255.8","8,489.3","12.3","41.89408538066","-87.62040431002","POINT (-87.62040431002175 41.894085380663164)","2022-102125"
"2022","159733",,"Submitted Data","4827 N SHERIDAN RD","60640","4.0","false","UPTOWN","Multifamily Housing","189,225","1967","1",,"67","2,887,086.2","12,291,480.3","0","0",,"92.5","128","97.5","132.5","1,033.1","6.3","41.96998686894","-87.65469603821","POINT (-87.65469603821012 41.96998686893952)","2022-159733"
"2022","251690","Chicago Military Academy-Bronzeville -CPS","Submitted Data","3533 S Giles Ave","60653","3.0","false","DOUGLAS","K-12 School","121,900","1915","2",,"70","2,530,294.9","5,838,440","0","0",,"68.7","108.4","70.4","109.4","643.4","5.3","41.83018617052","-87.61916879833","POINT (-87.61916879832785 41.830186170515454)","2022-251690"
"2022","251282","1100 N Dearborn St","Submitted Data","1100 N Dearborn St","60610","2.0","false","NEAR NORTH SIDE","Multifamily Housing","179,090","1930","1",,"41","3,217,548.9","17,576,649.2","0","0",,"116.1","153.4","123.2","159.2","1,357.4","7.6","41.90192583638","-87.63007339557","POINT (-87.63007339557312 41.901925836377025)","2022-251282"
"2022","256857",,"Not Submitted","3426 N Elaine Place","60657","0.0","false",,,"321,804",,,,,,,,,,,,,,,,"41.94441395697","-87.64775784889","POINT (-87.64775784889262 41.94441395697183)","2022-256857"
"2022","114866",,"Submitted Data","4940  S EASTEND AVE","60615","3.5","false","KENWOOD","Multifamily Housing","146,840","1928","1",,"77","1,579,829.5","10,590,270","0","0",,"82.9","105.9","88.2","110.8","770.6","5.2","41.80492317669","-87.58562455529","POINT (-87.58562455528525 41.804923176685726)","2022-114866"
"2022","251614","Kozminski Elementary Academy -CPS","Exempt","936 E 54th St","60615",,"true","HYDE PARK",,"100,709",,,,,,,,,,,,,,,,"41.79802949708","-87.60246286754","POINT (-87.60246286753599 41.798029497076946)","2022-251614"
"2022","251865","Prieto, Dr Jorge Elementary -CPS","Submitted Data","2231 N Central Ave","60639","3.5","false","BELMONT CRAGIN","K-12 School","115,458","2009","2",,"71","3,103,848.7","2,290,640","0","0",,"46.7","96.1","47.5","96.9","530.5","4.6","41.92131716932","-87.76574379791","POINT (-87.76574379790944 41.92131716931634)","2022-251865"
"2022","251518","Pulaski Fine Arts Academy, Casimir -CPS","Submitted Data","2230 W Mclean Ave","60647","1.0","false","LOGAN SQUARE","K-12 School","103,904","1949","2",,"22","4,268,961.2","4,701,870.2","0","0",,"86.3","162.6","90.4","168.5","812","7.8","41.91851374403","-87.68380061069","POINT (-87.6838006106913 41.91851374402591)","2022-251518"
"2022","131155",,"Submitted Data","217 221 N JEFFERSON ST","60661","1.0","false","NEAR WEST SIDE","Office","58,044","1938","1",,"24","4,889,277.8","599,697","0","0",,"94.6","246.7","94.4","246.5","675.8","11.6","41.88629366787","-87.64264392064","POINT (-87.642643920642 41.88629366786716)","2022-131155"
"2022","251393","Waters Fine Arts -CPS","Submitted Data","4540 N Campbell Ave","60625","2.0","false","LINCOLN SQUARE","K-12 School","93,947","1911","3",,"43","1,846,919","5,871,990.1","0","0",,"82.2","120.7","85","123.7","555.2","5.9","41.96434835445","-87.69136881312","POINT (-87.69136881312389 41.96434835444591)","2022-251393"
"2022","256555",,"Submitted Data","2350 N Lincoln Ave","60614","1.0","false","Lincoln Park","Office","57,566","2019","1",,"26","4,915,169.9","2,756,862","0","0",,"133.3","289.4","134.9","291","793.8","13.8","41.9246990999","-87.64792902485","POINT (-87.64792902485 41.92469909990273)","2022-256555"
"2022","113485","1366 Dearborn Condominium","Submitted Data","1366  N DEARBORN ST","60610","4.0","false","NEAR NORTH SIDE","Multifamily Housing","77,280","1923","1",,"66","1,068,490.7","5,567,486.5","0","0",,"85.9","114.4","89.5","117.2","436.5","5.6","41.90763271961","-87.63024615644","POINT (-87.63024615643657 41.90763271960614)","2022-113485"
"2022","102079","East Bank Club","Submitted Data","500 N Kingsbury St","60654","1.0","false","NEAR NORTH SIDE","Fitness Center/Health Club/Gym","384,409","1980","1",,,"32,008,405","33,170,497.9","0","0",,"215.3","411","215.5","408.3","5,977.8","19.7","41.89068430239","-87.63939528337","POINT (-87.63939528336996 41.89068430238799)","2022-102079"
"2022","101789","200 W Madison","Submitted Data","200 W Madison","60606","3.0","false","LOOP","Office","1,026,496","1982","1",,"66","48,108,398.4","0","0","0",,"48","134.5","48.9","136.9","6,336.6","6.3","41.88205498997","-87.63389990116","POINT (-87.63389990116276 41.88205498997484)","2022-101789"
"2022","116215",,"Submitted Data","1745  N KEYSTONE AVE","60639","2.0","false","HUMBOLDT PARK","Multifamily Housing","102,457","1983","1",,"45","4,117,950.4","3,005,115.1","0","0",,"69.5","143.3","70.4","144.3","702","6.9","41.91299036228","-87.72750390554","POINT (-87.72750390553908 41.91299036228414)","2022-116215"
"2022","172707",,"Not Submitted","4006 4016 N AUSTIN AVE","60634","0.0","false","PORTAGE PARK",,"74,463",,,,,,,,,,,,,,,,"41.95331402861","-87.77693150535","POINT (-87.77693150535144 41.95331402861302)","2022-172707"
"2022","251399","Park Manor Elementary -CPS","Submitted Data","7037 S Rhodes Ave","60637","3.0","false","GREATER GRAND CROSSING","K-12 School","62,706","1913","1",,"41","1,560,846.7","3,750,579.7","0","0",,"84.7","132.5","87.5","135.4","404.8","6.5","41.76648583637","-87.61150917051","POINT (-87.61150917051216 41.766485836369114)","2022-251399"
"2022","256424","Stuart Building","Not Submitted","10 W 31st Street","60616","0.0","false","DOUGLAS",,"83,906",,,,,,,,,,,,,,,,"41.83840557882","-87.62715545802","POINT (-87.62715545802021 41.838405578816044)","2022-256424"
"2022","254379","City Hyde Park","Submitted Data","5105 S HARPER AVE","60615","4.0","false","Hyde Park","Multifamily Housing","613,970","2015","1",,"87","10,146,864.3","13,664,952.1","0","0",,"64.7","116.2","65.9","116.9","2,062.3","5.6","41.80226056986","-87.58900434757","POINT (-87.58900434757135 41.80226056986326)","2022-254379"
"2022","251754","Phillip Murray Elementary Academy -CPS","Submitted Data","5335 S Kenwood Ave","60615","1.0","false","HYDE PARK","K-12 School","73,984","1954","3",,"15","2,970,118.6","4,798,959.9","0","0",,"105","180.5","106.3","179.6","646.1","8.7","41.79852500653","-87.59330351653","POINT (-87.59330351652744 41.79852500652537)","2022-251754"
"2022","159661",,"Submitted Data","3101-3121 N Sheridan Rd","60657","1.0","false","LAKE VIEW","Multifamily Housing","205,906","2000","1",,"6","7,846,941.5","22,866,900.1","0","0",,"149.2","223.3","157.1","229.7","2,248.1","10.9","41.93778436615","-87.63932266961","POINT (-87.63932266960995 41.937784366152115)","2022-159661"
"2022","160099","The Peninsula Chicago","Submitted Data","108 E Superior St","60611","1.0","false","NEAR NORTH SIDE","Hotel","410,081","2000","1",,"8","42,031,178","18,827,700","0","0",,"148.4","335.2","148.5","333.8","6,536.1","15.9","41.89583963821","-87.62498814132","POINT (-87.62498814131581 41.89583963820686)","2022-160099"
"2022","251387","Woodson South -CPS","Exempt","4414 S Evans Ave","60653",,"true","GRAND BOULEVARD",,"71,838",,,,,,,,,,,,,,,,"41.81447954915","-87.60845505139","POINT (-87.6084550513942 41.81447954914745)","2022-251387"
"2022","110854",,"Submitted Data","845  N KINGSBURY","60610","1.0","false","NEAR NORTH SIDE","Multifamily Housing","121,592","2007","1",,"8","3,386,329.1","8,819,741.9","0","0",,"140.5","215.7","141.9","213.1","914.5","10.5","41.89791697401","-87.64313291919","POINT (-87.64313291918586 41.89791697400784)","2022-110854"
"2022","252258","Roosevelt Square II","Submitted Data","1222 W Roosevelt Rd","60608","2.0","false","NEAR WEST SIDE","Multifamily Housing","173,645","2005","1",,"44","6,236,684.1","7,131,042.2","0","0",,"77","143.7","78.4","143.3","1,200.2","6.9","41.86709034875","-87.65767338132","POINT (-87.6576733813155 41.86709034875197)","2022-252258"
"2022","160211","Hyatt Chicago Magnificent Mile","Submitted Data","633 N St Clair St","60611","4.0","false","NEAR NORTH SIDE","Office","632,163","1991","1",,"88","23,351,731.5","14,936.4","0","0",,"37","103.5","36.4","101.9","3,076.5","4.9","41.8934753577","-87.62257467358","POINT (-87.6225746735784 41.89347535770077)","2022-160211"
"2022","250052","Steinmetz Academic Center HS -CPS","Submitted Data","3030 N Mobile Ave","60634","3.5","false","BELMONT CRAGIN","K-12 School","398,320","1934","3",,"78","6,655,013.6","18,493,979.8","0","0",,"63.1","95.5","65.1","97.6","1,858.9","4.7","41.93563171171","-87.78355193935","POINT (-87.78355193935316 41.93563171170667)","2022-250052"
"2022","251379","IBEW Local 134 Union Hall (expected 2016)","Submitted Data","2722 S King Dr","60616","0.0","false","DOUGLAS",,"130,000",,,,,,,,,,,,,,,,"41.84379445076","-87.61776767805","POINT (-87.61776767805219 41.84379445076125)","2022-251379"
"2022","175727","130 S Jefferson St","Submitted Data","130 S Jefferson St","60661","2.0","false","NEAR WEST SIDE","Office","78,790.7","1893","1",,,"3,161,373.1","3,460,446","0","0",,"84","158.5","85.3","156.3","600.2","7.6","41.87962086397","-87.64273493564","POINT (-87.64273493564174 41.879620863966615)","2022-175727"
"2022","104250",,"Submitted Data","544  W MELROSE ST","60657","2.0","false","LAKE VIEW","Multifamily Housing","54,089","1967","1",,"43","968,135.1","3,629,269.5","0","0",,"90.9","128.9","94.4","130.4","320.3","6.3","41.94125819643","-87.6436988479","POINT (-87.64369884789778 41.94125819643195)","2022-104250"
"2022","144572",,"Submitted Data","5301 5331 S KIMBARK AVE","60615","1.5","false","HYDE PARK","Multifamily Housing","59,904","1960","1",,"39","109,892.5","6,399,882","0","0",,"108.7","117.3","117.7","126.8","354.4","5.9","41.79940180871","-87.59487727869","POINT (-87.59487727868954 41.79940180871292)","2022-144572"
"2022","101940","Mallers Building LLC","Submitted Data","5 S Wabash Ave","60603",,"true","LOOP","Enclosed Mall","314,262","1912","1",,,"12,947,935","12,839,730.1","0","0",,"82.1","158.3","80.9","155.1","2,387.4","7.6","41.88192156256","-87.62606305985","POINT (-87.62606305984501 41.88192156256051)","2022-101940"
"2022","172613",,"Submitted Data","2720 2730 N Greenview Ave","60614","4.0","false","LINCOLN PARK","Multifamily Housing","64,000","1986","1",,"100","605,719.2","1,115,773.8","0","0",,"31.9","53.1","31.2","51.3","139","2.6","41.93133368277","-87.66609193616","POINT (-87.66609193616192 41.93133368277255)","2022-172613"
"2022","159276","Foxboro Properties, LLC","Submitted Data","6201 S Emerald Dr","60621","2.0","false","ENGLEWOOD","Other - Public Services","80,000","1985","1",,,"3,952,965.6","1,553,849.9","0","0",,"68.8","158.7","68.5","156.4","603.2","7.5","41.78166673591","-87.64473024375","POINT (-87.64473024375266 41.781666735908715)","2022-159276"
"2022","159999","Lake Terrace Condominiums","Submitted Data","7337 S SOUTH SHORE DR","60649","3.0","false","SOUTH SHORE","Multifamily Housing","308,690","1958","1",,"47","6,002,221.8","24,721,062.4","0","0",,"112.5","156.6","117.7","161.1","2,103.6","7.7","41.76323502387","-87.55961668246","POINT (-87.55961668246357 41.76323502386814)","2022-159999"
"2022","256808",,"Not Submitted","205 S PEORIA ST","60607","0.0","false","Near West Side",,"50,000",,,,,,,,,,,,,,,,"41.87899810482","-87.6494662212","POINT (-87.64946622120027 41.87899810481644)","2022-256808"
"2022","117188","Ruth Shriman House","Submitted Data","4040  N SHERIDAN RD","60613","3.5","false","UPTOWN","Multifamily Housing","67,988","1999","1",,"79","755,775.1","5,127,229.9","0","0",,"86.5","110.3","90.1","114.2","371.9","5.5","41.95568501728","-87.65472512811","POINT (-87.65472512810643 41.95568501727633)","2022-117188"
"2022","106184",,"Not Submitted","5300 5308 S PULASKI RD","60632","0.0","false","WEST ELSDON",,"61,500",,,,,,,,,,,,,,,,"41.79675457185","-87.7234092203","POINT (-87.72340922029963 41.79675457185308)","2022-106184"
"2022","253967","Twenty N. State Condominium Association","Submitted Data","20 N State St","60602","2.5","false","Loop","Multifamily Housing","211,608","1930","1",,"53","8,114,118.8","8,041,686.5","0","0",,"76.3","147.3","78.7","149.7","1,495.9","7.1","41.88249264464","-87.62799580639","POINT (-87.62799580639097 41.882492644635484)","2022-253967"
"2022","175130",,"Not Submitted","5925  N PAULINA ST","60660","0.0","false","EDGEWATER",,"50,173",,,,,,,,,,,,,,,,"41.98918225917","-87.67143722238","POINT (-87.67143722238339 41.989182259168956)","2022-175130"
"2022","105034","Carmen Marine Tenant Chicago Il","Submitted Data","5030 N Marine Dr","60640","0.0","false","UPTOWN","Multifamily Housing","303,602","1971","1",,,,"0","0","0",,,,,,"0","0","41.97427075423","-87.65149530893","POINT (-87.65149530892887 41.97427075422844)","2022-105034"
"2022","251647","Gregory Elementary -CPS","Exempt","3707 W Polk","60624",,"true","EAST GARFIELD PARK",,"109,900",,,,,,,,,,,,,,,,"41.87071589227","-87.71834052206","POINT (-87.71834052206428 41.870715892271264)","2022-251647"
"2022","222943","University Park Condominium Association","Submitted Data","1451 E 55th St","60615","3.0","false","HYDE PARK","Multifamily Housing","579,783","1961","2",,"62","4,921,634.3","52,357,928.4","0","0",,"106.3","127.6","114.1","135.8","3,429.2","6.4","41.79540241485","-87.5895798345","POINT (-87.58957983449767 41.795402414850116)","2022-222943"
"2022","256880",,"Submitted Data","23 W CHICAGO AVE","60654","3.5","false",,"Multifamily Housing","993,583","2021","2",,"77","12,574,637.9","61,167,040.6","0","0",,"74.2","100.1","76.1","101.1","4,905.1","4.9","41.89655372408","-87.62919269257","POINT (-87.62919269256527 41.89655372407749)","2022-256880"
"2022","105150",,"Not Submitted","1533 W JARVIS AVE","60626","0.0","false","ROGERS PARK",,"68,955",,,,,,,,,,,,,,,,"42.015901674","-87.66944213505","POINT (-87.66944213504543 42.015901673998954)","2022-105150"
"2022","242148","(IL337)- Museum Park Place","Submitted Data","1841 S Calumet Ave","60616","2.5","false","NEAR SOUTH SIDE","Multifamily Housing","407,616","2006","1",,"54","9,847,758.9","17,065,212","0","0",,"89.4","151.1","92.5","153","2,203.5","7.3","41.85679915854","-87.61898739327","POINT (-87.61898739327104 41.856799158542195)","2022-242148"
"2022","158412","AC Hotel Chicago Downtown","Not Submitted","630 N Rush St","60611","0.0","false","NEAR NORTH SIDE",,"371,717",,,,,,,,,,,,,,,,"41.8933524377","-87.62556698833","POINT (-87.62556698832533 41.89335243769719)","2022-158412"
"2022","250107","Mayor Robert H Lawrence Apts","Submitted Data","655 W 65th St","60621","4.0","false","ENGLEWOOD","Multifamily Housing","158,732","1967","1",,"85","3,027,316.4","7,506,830.2","0","0",,"66.4","103.1","69.7","106.6","797.5","5","41.77603810771","-87.64186306248","POINT (-87.64186306247757 41.776038107710136)","2022-250107"
"2022","172584","ASPIRA Early College High School","Not Submitted","3986 W Barry Ave","60618","0.0","false","AVONDALE",,"59,374",,,,,,,,,,,,,,,,"41.93738186062","-87.7268241024","POINT (-87.72682410240208 41.937381860623276)","2022-172584"
"2022","239994","Park 1500 Lofts","Submitted Data","1500 W Monroe St","60607","4.0","false","NEAR WEST SIDE","Multifamily Housing","516,812","2004","2",,"92","9,012,557","11,456,931.3","0","0",,"52.9","96.3","53.4","95.3","1,795.6","4.6","41.88031674053","-87.6645103395","POINT (-87.66451033949646 41.8803167405322)","2022-239994"
"2022","132161",,"Exempt","4000 4006 W NORTH AVE","60639",,"true","HUMBOLDT PARK",,"51,280",,,,,,,,,,,,,,,,"41.90999558161","-87.72639469321","POINT (-87.72639469321471 41.90999558160536)","2022-132161"
"2022","172637",,"Exempt","800 900 W 115TH ST","60643",,"true","MORGAN PARK",,"170,500",,,,,,,,,,,,,,,,"41.68519005572","-87.64227956402","POINT (-87.64227956401977 41.68519005571938)","2022-172637"
"2022","172387","Wrigley Global Innovation Center","Not Submitted","1132 W BLACKHAWK ST","60642","0.0","false","NEAR NORTH SIDE",,"276,780",,,,,,,,,,,,,,,,"41.90726025271","-87.65680417252","POINT (-87.65680417252435 41.90726025271137)","2022-172387"
"2022","251567","Pershing West -CPS","Submitted Data","3200 S Calumet Ave","60616","2.0","false","DOUGLAS","K-12 School","128,716","1924","2",,"49","2,226,418.7","9,086,849.6","0","0",,"87.9","122.6","93.1","128","775.9","6","41.83649004697","-87.61837372401","POINT (-87.61837372400701 41.83649004697288)","2022-251567"
"2022","158774","Bethany Retirement Community","Not Submitted","4950 N ASHLAND AVE","60640","0.0","false","UPTOWN",,"121,446",,,,,,,,,,,,,,,,"41.9724777682","-87.66968611689","POINT (-87.66968611689114 41.97247776820093)","2022-158774"
"2022","253952","Catherine Courts Condominium Association of Chicago","Not Submitted","8439-8503 W Catherine Ave","60656","0.0","false","OHARE",,"149,754",,,,,,,,,,,,,,,,"41.97735038102","-87.83828812076","POINT (-87.83828812075606 41.97735038102216)","2022-253952"
"2022","251909","Garvey Elementary, John W -CPS","Submitted Data","5225 N Oak Park Ave","60656","1.0","false","NORWOOD PARK","K-12 School","79,665","1936","3",,"15","3,162,709.2","4,763,399.7","0","0",,"99.5","173.9","101.9","174.5","669.6","8.4","41.97635262495","-87.79619832114","POINT (-87.79619832113984 41.9763526249536)","2022-251909"
"2022","101943","303 W Madison","Submitted Data","303 W Madison St","60606","3.5","false","LOOP","Office","353,439","1987","1",,"79","17,533,064.2","0","0","0",,"50.8","142.1","51.4","143.8","2,309.4","6.7","41.88182249377","-87.63543657103","POINT (-87.6354365710274 41.881822493770215)","2022-101943"
"2022","175867","Six Corners Plaza","Not Submitted","3970 - 3982 N Milwaukee Ave","60641","0.0","false","PORTAGE PARK",,"80,596",,,,,,,,,,,,,,,,"41.95289254101","-87.74670937746","POINT (-87.74670937745921 41.95289254100759)","2022-175867"
"2022","252013","900 Franklin","Not Submitted","900 N Franklin St","60610","0.0","false","NEAR NORTH SIDE",,"95,866",,,,,,,,,,,,,,,,"41.89899799425","-87.63592067312","POINT (-87.63592067312285 41.89899799424835)","2022-252013"
"2022","255002","Mariano's","Not Submitted","3857 S DR MARTIN L KING JR DR","60653","0.0","false","Douglas",,"72,115",,,,,,,,,,,,,,,,"41.82398325151","-87.61685389079","POINT (-87.61685389078539 41.82398325151479)","2022-255002"
"2022","175743",,"Not Submitted","3000 3030 W MARQUETTE RD","60629","0.0","false","CHICAGO LAWN",,"8,000",,,,,,,,,,,,,,,,"41.77185370015","-87.6981578935","POINT (-87.69815789349511 41.77185370015405)","2022-175743"
"2022","256885",,"Submitted Data","740 N ABERDEEN ST","60642","1.0","false",,"Multifamily Housing","220,601","2020","1",,"23","8,683,365.7","7,124,466.1","0","0",,"71.7","144.1","73","145.6","1,522.1","6.9","41.8953318242","-87.65523983963","POINT (-87.6552398396278 41.895331824200014)","2022-256885"
"2022","102408","Mundelein Center","Not Submitted","1020 W Sheridan Rd","60660","0.0","false","ROGERS PARK",,"206,160",,,,,,,,,,,,,,,,"41.99833536934","-87.65721012539","POINT (-87.65721012538745 41.998335369336324)","2022-102408"
"2022","254977","Whole Foods","Submitted Data","3201 N ASHLAND AVE","60657","1.5","false","Lake View","Supermarket/Grocery Store","82,147","2017","1",,"37","17,481,787.3","7,335,000","0","0",,"302.1","689.6","305.6","693.3","2,692.2","32.8","41.93974461573","-87.66851610106","POINT (-87.6685161010639 41.93974461573451)","2022-254977"
"2022","130442",,"Submitted Data","210 N GREEN ST","60607","4.0","false","NEAR WEST SIDE","Office","92,741","1893","1",,"93","3,290,469.8","1,741,300.2","0","0",,"54.3","119.1","55.8","120.7","525.9","5.7","41.88601933271","-87.64879882848","POINT (-87.64879882847895 41.886019332711655)","2022-130442"
"2022","256542",,"Not Submitted","5525 W Diversey Ave","60639","0.0","false","Belmont Cragin",,"72,000",,,,,,,,,,,,,,,,"41.93118709471","-87.76479650741","POINT (-87.76479650741335 41.93118709471326)","2022-256542"
"2022","119676","Home Depot, #1974 Cicero & Armitage","Submitted Data","1919 N Cicero Ave","60639","2.0","false","BELMONT CRAGIN","Retail Store","118,221","2003","1",,"47","4,381,682.8","8,507,308.8","0","0",,"109","179.3","113.4","181.5","1,029","8.7","41.91571014555","-87.74590775451","POINT (-87.74590775451382 41.91571014555266)","2022-119676"
"2022","254989","Depaul University Holtschneider Performance Center","Submitted Data","2330 N HALSTED ST","60614","2.0","false","Lincoln Park","Performing Arts","185,000","2018","1",,,"6,373,579.8","13,867,437.8","0","0",,"109.4","175.2","111.3","177.1","1,576.1","8.5","41.92456760597","-87.64887518195","POINT (-87.64887518194728 41.92456760597094)","2022-254989"
"2022","158402","W CHICAGO - CITY CENTER","Submitted Data","172 W Adams St","60603","1.0","false","LOOP","Hotel","243,373","2009","1",,"13","15,170,851.2","26,330,119.1","0","0",,"170.5","288.1","175.3","290.6","3,396.7","14","41.87950365016","-87.63296974157","POINT (-87.63296974156731 41.879503650161986)","2022-158402"
"2022","251564","Carter Elementary -CPS","Exempt","5740 S Michigan Ave","60637",,"true","WASHINGTON PARK",,"86,910",,,,,,,,,,,,,,,,"41.78984128583","-87.62248974219","POINT (-87.6224897421911 41.789841285831926)","2022-251564"
"2022","160046",,"Submitted Data","444 W Lake St","60606","4.0","false","NEAR WEST SIDE","Office","1,339,945","2016","1",,"82","55,258,026.1","3,687,341.7","0","0",,"47.6","128","48","129.3","7,474.1","6","41.88582970383","-87.63980643562","POINT (-87.63980643561894 41.88582970383457)","2022-160046"
"2022","256263","Fulton West","Submitted Data","1330 W. Fulton","60607","3.5","false","NEAR WEST SIDE","Office","555,948","2017","1",,"74","13,498,633.6","5,133,918.9","0","0",,"60.5","140.2","60.5","140.2","2,050.6","6.7","41.88673894982","-87.66015770725","POINT (-87.66015770724567 41.88673894981951)","2022-256263"
"2022","155614",,"Not Submitted","3447 3457 W FOSTER AVE","60625","0.0","false","NORTH PARK",,"52,200",,,,,,,,,,,,,,,,"41.97556033227","-87.71545853177","POINT (-87.71545853176517 41.97556033227039)","2022-155614"
"2022","250092","Judge Harry M. Fisher Apartments","Submitted Data","5821 N Broadway St","60660","3.5","false","EDGEWATER","Multifamily Housing","173,733","1964","1",,"78","3,627,255.1","8,241,230","0","0",,"68.3","108.3","70.5","110.1","915.5","5.3","41.98765562648","-87.6600457278","POINT (-87.66004572780321 41.98765562647958)","2022-250092"
"2022","175265",,"Not Submitted","3201 3219 W NORTH AVE","60647","0.0","false","HUMBOLDT PARK",,"52,650",,,,,,,,,,,,,,,,"41.91000478799","-87.70703232428","POINT (-87.70703232428225 41.91000478799483)","2022-175265"
"2022","254225","Ray and Joan Kroc Corps Community Center","Submitted Data","1250 W 119th St","60643","1.0","false","West Pullman","Fitness Center/Health Club/Gym","158,483","2012","1",,,"8,359,539.2","15,617,716","0","0",,"151.3","251.2","154.9","252.2","1,999.2","12.6","41.6777603931","-87.65366213756","POINT (-87.65366213755682 41.677760393095106)","2022-254225"
"2022","252040","Kersten Physics Teaching Center","Submitted Data","5720 S Ellis Ave","60637","2.0","false","HYDE PARK","College/University","59,287","1985","1",,,"1,505,829.3","0","5,002,513.7","1,090,872",,"128.2","189.4","126.3","188","588","9.9","41.79075786006","-87.60143586379","POINT (-87.6014358637859 41.790757860060694)","2022-252040"
"2022","240338","Lakeside on the Park Condominium","Submitted Data","1250 S INDIANA AVE","60605","4.0","false","NEAR SOUTH SIDE","Multifamily Housing","267,040","2004","1",,"74","4,782,743.8","10,302,065.8","0","0",,"72.7","116.7","74.6","118.7","1,177.1","5.7","41.86609117936","-87.62266724496","POINT (-87.62266724496163 41.86609117936001)","2022-240338"
"2022","146019",,"Not Submitted","4730  N KIMBALL AVE","60625","0.0","false","ALBANY PARK",,"88,413",,,,,,,,,,,,,,,,"41.96751720453","-87.71348537483","POINT (-87.71348537483077 41.96751720452502)","2022-146019"
"2022","251677","Darwin -CPS","Submitted Data","3116 W Belden Ave","60647","2.5","false","LOGAN SQUARE","K-12 School","121,241","1900","3",,"51","3,638,277","4,203,819.7","0","0",,"64.7","120.4","67.4","123.3","702.5","5.8","41.92334997667","-87.70543098761","POINT (-87.70543098761328 41.923349976671894)","2022-251677"
"2022","175845",,"Not Submitted","2451  W HOWARD ST","60645","0.0","false","WEST RIDGE",,"77,015",,,,,,,,,,,,,,,,"42.01938098668","-87.69207353162","POINT (-87.69207353162442 42.01938098668099)","2022-175845"
"2022","172679","Cook Brothers","Submitted Data","1740 N Kostner Ave","60639","1.5","false","HUMBOLDT PARK","Retail Store","384,492","1977","1",,"33","5,214,241.3","5,848,204.4","0","0",,"102.7","192.5","103.2","189.7","997.4","9.3","41.91276950189","-87.73634835671","POINT (-87.7363483567106 41.91276950189482)","2022-172679"
"2022","119885",,"Submitted Data","1050  W 79TH ST","60620","3.0","false","AUBURN GRESHAM","Senior Living Community","60,500","2005","1",,"47","2,355,133","2,446,700","0","0",,"79.4","151.5","81.5","152","440.2","7.3","41.75064861933","-87.65092232062","POINT (-87.65092232062139 41.75064861933454)","2022-119885"
"2022","251388","Greeley Elementary -CPS","Submitted Data","832 W Sheridan Rd","60613","1.0","false","LAKE VIEW","K-12 School","60,718","1978","1",,"10","4,201,854.3","28,800","0","0",,"69.7","194.3","70.6","196.8","555","9.1","41.95283701351","-87.65097549411","POINT (-87.65097549411013 41.95283701350835)","2022-251388"
"2022","254409","Haberdasher Square Lofts","Submitted Data","728 W Jackson Blvd","60661","3.5","false","NEAR WEST SIDE","Multifamily Housing","427,614","1927","2",,"72","8,706,592.5","18,382,654.3","0","0",,"64.4","103.8","65.5","103.7","2,123.2","5","41.87808092559","-87.64529984956","POINT (-87.64529984955941 41.878080925593714)","2022-254409"
"2022","101950","332 Property LLC","Submitted Data","332 S Michigan Ave","60604","3.5","false","LOOP","Office","529,401","1910","1",,"71","14,712,241.2","29,573,324.1","0","0",,"83.7","136.5","87.2","138.2","3,508.6","6.6","41.87748017698","-87.62444658849","POINT (-87.62444658849093 41.87748017697733)","2022-101950"
"2022","254997","Linkt Apartments","Submitted Data","830 N MILWAUKEE AVE","60642","4.0","false","West Town","Multifamily Housing","63,568","2017","1",,"91","1,463,305.6","1,299,531.6","0","0",,"51.1","101","51.3","100.3","261.8","4.8","41.89691823704","-87.65668624184","POINT (-87.65668624184336 41.89691823704051)","2022-254997"
"2022","172610","Riverpoint Owner, LLC","Submitted Data","1730 W Fullerton Ave","60614","2.0","false","LINCOLN PARK","Strip Mall","211,025","1998","1",,,"16,369,554.9","8,713,808.7","0","0",,"118.9","260.6","118.7","258.2","2,618.9","12.4","41.92521232759","-87.67192542514","POINT (-87.67192542513618 41.92521232759425)","2022-172610"
"2022","242554",,"Submitted Data","3001 S MICHIGAN AVE","60616","2.0","false","DOUGLAS","Multifamily Housing","293,042","1964","1",,"46","3,704,062.5","18,716,907.4","0","0",,"107.8","144.3","112.1","148","1,482","7.1","41.83954494293","-87.62308969922","POINT (-87.62308969921595 41.839544942931575)","2022-242554"
"2022","251386","Crown Community Academy -CPS","Exempt","2128 S St Louis Ave","60623",,"true","NORTH LAWNDALE",,"63,352",,,,,,,,,,,,,,,,"41.85266154968","-87.71250679904","POINT (-87.71250679904112 41.85266154967836)","2022-251386"
"2022","157320",,"Submitted Data","24  S MORGAN ST","60607","2.0","false","NEAR WEST SIDE","Multifamily Housing","129,844","2008","1",,"50","3,159,480.9","5,460,616.8","0","0",,"66.4","112.3","67.4","111.5","706.2","5.4","41.88098164434","-87.65215509408","POINT (-87.65215509407778 41.88098164434496)","2022-157320"
"2022","175523","222 West Hubbard Street","Submitted Data","222 W Hubbard St","60654","3.0","false","NEAR NORTH SIDE","Office","66,095","1905","1",,"61","2,704,244.4","2,145,510.1","0","0",,"73.4","148.6","75.3","149.8","470.1","7.1","41.89007914428","-87.63503836217","POINT (-87.63503836217389 41.89007914428136)","2022-175523"
"2022","257001",,"Submitted Data","540 W Webster","60614","4.0","false",,"Multifamily Housing","273,506","2015","1",,"95","4,533,565.2","6,264,130","0","0",,"52.2","93.2","52.5","92.4","929.9","4.5","41.92200966086","-87.64299271703","POINT (-87.64299271703334 41.922009660860056)","2022-257001"
"2022","251557","Lavizzo Elementary - CPS","Submitted Data","137 W 108th Pl","60628","1.0","false","ROSELAND","K-12 School","83,900","1999","1",,"24","3,177,803.8","4,213,710.1","0","0",,"88.1","158.8","89.9","158","642.4","7.7","41.69698446268","-87.6270772296","POINT (-87.62707722960421 41.69698446268434)","2022-251557"
"2022","137704","Vranas and Assoc. C/O Realty and Mortgage Co.","Submitted Data","346 N Justine St","60607","4.0","false","NEAR WEST SIDE","Office","91,680","1915","1",,"98","906,552.7","2,398,993.1","0","0",,"36.1","55.2","37.3","55.5","246.8","2.7","41.88789268024","-87.66566105578","POINT (-87.66566105578042 41.88789268024026)","2022-137704"
"2022","228537","201 E Chestnut St","Submitted Data","201 E Chestnut St","60611","1.0","false","NEAR NORTH SIDE","Multifamily Housing","224,710","1966","1",,"26","9,478,197.2","3,364,459.3","0","0",,"63.7","149.3","65.6","152.5","1,427.1","7.1","41.8983108869","-87.62176979076","POINT (-87.62176979076267 41.89831088690182)","2022-228537"
"2022","257024",,"Exempt","1454 W Randolph",,,"true",,,"256,940",,,,,,,,,,,,,,,,"41.88475754563","-87.66410523435","POINT (-87.66410523435272 41.88475754562794)","2022-257024"
"2022","254004",,"Submitted Data","2700 N Halsted St","60614","4.0","false","Lincoln Park","Multifamily Housing","106,304","2002","1",,"99","1,153,707.6","2,712,026","0","0",,"45.2","71.1","45.8","70.7","296","3.5","41.93157329152","-87.64911885057","POINT (-87.64911885057478 41.93157329151902)","2022-254004"
"2022","101804","401 N Michigan Ave","Submitted Data","401 N Michigan Ave","60611","4.0","false","NEAR NORTH SIDE","Office","1,103,049","1965","1",,"79","30,069,110.9","52,141,178.6","0","0",,"79","133.5","77.6","132","6,730","6.5","41.88935425193","-87.62410245624","POINT (-87.62410245624348 41.88935425192819)","2022-101804"
"2022","250051","Simeon Career Academy HS -CPS","Submitted Data","8235 S Vincennes Ave","60620","1.0","false","CHATHAM","K-12 School","284,691","2003","2",,"18","13,970,696.4","14,720,339.7","0","0",,"100.8","191.7","101.7","190.5","2,622","9.2","41.74429713306","-87.63575609207","POINT (-87.63575609207416 41.74429713306096)","2022-250051"
"2022","251315","Jewel Osco, 02502-Clybourn & Wrightwood","Submitted Data","2550 N Clybourn St","60614","2.0","false","LINCOLN PARK","Supermarket/Grocery Store","85,209","2013","1",,"49","10,360,200","11,176,499.3","0","0",,"252.8","478.2","262.5","486.5","1,958.2","23","41.92787172312","-87.67325881463","POINT (-87.67325881463049 41.92787172311833)","2022-251315"
"2022","173594","19 South LaSalle Street","Not Submitted","19 S LaSalle St","60603","0.0","false","LOOP",,"161,339",,,,,,,,,,,,,,,,"41.88141900801","-87.63220320777","POINT (-87.63220320776806 41.88141900800828)","2022-173594"
"2022","120010","Park Community Church","Not Submitted","1001 N Crosby","60610","0.0","false","NEAR NORTH SIDE",,"64,700",,,,,,,,,,,,,,,,"41.90035516338","-87.64372907066","POINT (-87.64372907066375 41.90035516338191)","2022-120010"
"2022","119223","Home Depot, #1980 Kimball & Addiston","Submitted Data","3500 N Kimball Ave","60618","2.5","false","AVONDALE","Retail Store","109,634","2003","1",,"58","3,679,508.1","8,112,153.8","0","0",,"107.6","171.7","111.5","174.2","915.5","8.4","41.94488107385","-87.71280508876","POINT (-87.71280508875888 41.944881073845465)","2022-119223"
"2022","111724",,"Submitted Data","1872  N CLYBOURN AVE","60614","4.0","false","LINCOLN PARK","Multifamily Housing","118,326","1983","1",,"87","2,692,109.3","3,172,699.9","0","0",,"49.6","91.9","49.8","90.7","523.1","4.4","41.91499718048","-87.65542627676","POINT (-87.6554262767647 41.914997180480015)","2022-111724"
"2022","160451",,"Submitted Data","50 E Chestnut St","60611","1.0","false","NEAR NORTH SIDE","Multifamily Housing","155,910","2007","1",,"19","4,884,572.2","9,949,532.4","0","0",,"107.1","174.2","112.2","178","1,171.8","8.5","41.8984650062","-87.62633254606","POINT (-87.62633254605812 41.898465006200965)","2022-160451"
"2022","175728",,"Submitted Data","808 812 W JUNIOR TER","60613","2.5","false","UPTOWN","Multifamily Housing","76,690","1920","1",,"38","3,520,179.1","1,524,020.4","0","0",,"65.8","149.4","67.7","154.8","544.6","7.1","41.96047272251","-87.65028170241","POINT (-87.65028170240782 41.960472722508484)","2022-175728"
"2022","136845","US Bank -- Englewood","Submitted Data","815 W 63rd St","60621","2.0","false","ENGLEWOOD","Office","63,034","1920","1",,"46","1,969,650","3,445,923.7","0","0",,"85.9","144.9","88.6","147.7","442.5","7","41.77963107686","-87.64546976885","POINT (-87.64546976885099 41.77963107685854)","2022-136845"
"2022","251896","Region 4 Office -CPS","Submitted Data","4655 S Dearborn St","60609","4.0","false","GRAND BOULEVARD","Office","99,100","1990","1",,"73","2,590,663.4","6,537,660.3","0","0",,"92.1","142.5","95.6","146.1","688.5","6.9","41.80965480265","-87.62702979806","POINT (-87.6270297980589 41.809654802646655)","2022-251896"
"2022","251250","Lincoln Park Villas","Submitted Data","1920 N Clark St","60614","2.5","false","LINCOLN PARK","Multifamily Housing","82,955","1974","1",,"51","3,324,481.3","992,962.8","0","0",,"60.2","144.3","61.5","147.5","490.6","6.8","41.91719655021","-87.63548943346","POINT (-87.63548943346167 41.917196550207095)","2022-251250"
"2022","250067","Goldblatts Building","Submitted Data","1609 W Chicago Ave","60622","2.5","false","WEST TOWN","Office","160,280","1940","1",,"58","9,016,977.9","3,091,890.3","0","0",,"75.5","177.8","75.2","174.3","1,351.9","8.4","41.89595743752","-87.6676638635","POINT (-87.66766386349812 41.895957437521645)","2022-250067"
"2022","231297","1000 W Adams Condo Association","Submitted Data","1000 W Adams St","60607","4.0","false","NEAR WEST SIDE","Multifamily Housing","244,331","1999","1",,"80","4,476,631.6","7,464,100.3","0","0",,"64.3","109.7","66.2","111.7","986.1","5.3","41.87924663646","-87.65208561254","POINT (-87.65208561253912 41.87924663645916)","2022-231297"
"2022","256490",,"Submitted Data","5427 N Broadway St","60640","3.0","false","EDGEWATER","Multifamily Housing","93,960","1910","3",,"69","1,436,601.2","4,991,709.4","0","0",,"73","105.3","74.7","107","454.4","5.2","41.98080171783","-87.65984390503","POINT (-87.65984390503488 41.98080171783289)","2022-256490"
"2022","105608",,"Submitted Data","513 519 W BRIAR PL","60657","1.5","false","LAKE VIEW","Multifamily Housing","50,736","1932","1",,"35","863,512","4,157,249.1","0","0",,"99","133.7","101.1","133.8","334.5","6.6","41.93860590925","-87.64251625116","POINT (-87.64251625116094 41.938605909253916)","2022-105608"
"2022","256788",,"Not Submitted","105 N MAY ST","60607","0.0","false","Near West Side",,"150,799",,,,,,,,,,,,,,,,"41.88317649587","-87.65542538309","POINT (-87.65542538308661 41.88317649586642)","2022-256788"
"2022","112320",,"Submitted Data","1020  W THORNDALE AVE","60660","1.0","false","EDGEWATER","Multifamily Housing","55,000","1976","1",,"17","1,100,432.2","5,651,618.5","0","0",,"122.8","163.9","127.7","168.5","445.1","8.1","41.99020025218","-87.65631782612","POINT (-87.65631782611601 41.99020025218026)","2022-112320"
"2022","251407","Agassiz Elementary -CPS","Submitted Data","2851 N Seminary Ave","60657","1.0","false","LAKE VIEW","K-12 School","57,743","1913","1",,"6","1,546,536.7","7,788,209.9","0","0",,"161.7","216.6","171.3","227.7","617.4","10.7","41.93412004041","-87.65619167454","POINT (-87.65619167453802 41.93412004040734)","2022-251407"
"2022","251289","The Madison at Racine/1200 Madison Racine LLC","Submitted Data","1164 W Madison","60607","3.5","false","NEAR WEST SIDE","Multifamily Housing","303,222","2014","1",,"75","7,122,683.2","7,867,775.5","0","0",,"59.2","111.3","59.2","109.9","1,356.1","5.4","41.88173387687","-87.65671487822","POINT (-87.65671487822395 41.88173387686932)","2022-251289"
"2022","121264","Chicago Theological Seminary","Submitted Data","1407 E 60th St","60637","4.0","false","WOODLAWN","College/University","80,489","2011","1",,,"2,321,395.2","27,533","4,195,895.2","1,587,240",,"101","161.8","101.3","162.5","669.5","8.3","41.78598917842","-87.59118162845","POINT (-87.59118162844564 41.785989178415164)","2022-121264"
"2022","241007","ParkView at River East Condominium Association","Submitted Data","505 N McClurg Ct","60611","1.0","false","NEAR NORTH SIDE","Multifamily Housing","437,074","2008","1",,"30","14,556,355.8","22,183,554.5","0","0",,"84.1","146.5","87.7","149.9","3,095.6","7.1","41.89123659335","-87.61752783896","POINT (-87.61752783895781 41.89123659335269)","2022-241007"
"2022","120267","Pete's Madison","Submitted Data","2333 W Madison","60612","1.0","false","NEAR WEST SIDE","Supermarket/Grocery Store","66,000","2013",,,"29","11,169,349.3","10,089,445.8","0","0",,"322.1","634.4","324.6","632.1","2,007.1","30.4","41.88106937422","-87.68530755272","POINT (-87.68530755272025 41.88106937422222)","2022-120267"
"2022","120876","224 N Desplaines St","Not Submitted","224 N Desplaines St","60661","0.0","false","NEAR WEST SIDE",,"77,760",,,,,,,,,,,,,,,,"41.88656194179","-87.64441731288","POINT (-87.64441731288443 41.88656194179193)","2022-120876"
"2022","176010","Friedman Properties, Ltd","Submitted Data","420 N Wabash Ave","60611","1.0","false","NEAR NORTH SIDE","Office","102,450","1906","1",,"21","8,729,768.8","5,151,899.8","0","0",,"135.5","291.4","134.2","287.7","1,423.5","13.9","41.89004509255","-87.62681033007","POINT (-87.62681033007378 41.89004509255256)","2022-176010"
"2022","105790","Uptown Regency","Submitted Data","5046 5052 N SHERIDAN RD","60640","1.0","false","UPTOWN","Multifamily Housing","115,533","1928","1",,"25","2,655,410.4","11,087,045.4","0","0",,"118.9","165.1","123.4","168.3","938.6","8.1","41.97473193141","-87.65511370109","POINT (-87.6551137010918 41.974731931412656)","2022-105790"
"2022","240215","757 Orleans at Chicago Condominium","Submitted Data","757 N Orleans St","60654","4.0","false","NEAR NORTH SIDE","Multifamily Housing","412,335","2008","1",,"85","9,918,541.3","7,364,101.4","0","0",,"54.3","111.6","53","108","1,697.6","5.3","41.89650311076","-87.63702357095","POINT (-87.63702357094722 41.89650311075949)","2022-240215"
"2022","256538",,"Not Submitted","2340 N California Ave","60647","0.0","false","Logan Square",,"106,861",,,,,,,,,,,,,,,,"41.92401775759","-87.69754237454","POINT (-87.6975423745426 41.924017757585965)","2022-256538"
"2022","255012","Vue53","Submitted Data","1330 E 53RD ST","60615","0.0","false","Hyde Park",,"315,872",,,,,,,,,,,,,,,,"41.79959786939","-87.59376103688","POINT (-87.59376103688076 41.79959786938958)","2022-255012"
"2022","238266","The Fordham Condominium Association","Submitted Data","25 E Superior St","60611","1.0","false","NEAR NORTH SIDE","Multifamily Housing","793,352","2003","1",,"17","27,749,094.1","9,669,844.9","0","0",,"63.5","149.2","65","152.4","4,168.6","7.1","41.89558509806","-87.62706353452","POINT (-87.6270635345156 41.89558509805822)","2022-238266"
"2022","250109","Vivian Gordon Harsh Apts","Submitted Data","4227 S Oakenwald Ave","60653","2.5","false","OAKLAND","Multifamily Housing","102,424","1963","1",,"38","2,018,147.6","8,987,720.2","0","0",,"107.5","147.3","114.7","154.9","743.2","7.3","41.81733455105","-87.59766473441","POINT (-87.59766473441066 41.81733455105252)","2022-250109"
"2022","251290","Millenium Knickerbocker","Not Submitted","163 E Walton Pl","60611","0.0","false","NEAR NORTH SIDE",,"190,004",,,,,,,,,,,,,,,,"41.89991467357","-87.6230595123","POINT (-87.62305951230135 41.89991467356533)","2022-251290"
"2022","111466",,"Submitted Data","939 W HURON ST","60642","4.0","false","WEST TOWN","Multifamily Housing","60,000","1992","1",,"94","1,173,575.5","2,176,043.5","0","0",,"55.8","92.8","56.4","92.3","270.2","4.5","41.89491674978","-87.65158852436","POINT (-87.65158852435547 41.89491674977685)","2022-111466"
"2022","251639","Kilmer Elementary -CPS","Submitted Data","6700 N Greenview Ave","60626","3.5","false","ROGERS PARK","K-12 School","106,366","1930","2",,"76","2,522,385.8","2,165,600","0","0",,"44.1","87.8","44.5","86.7","447.3","4.2","42.00367622037","-87.66826025653","POINT (-87.66826025653212 42.003676220369776)","2022-251639"
"2022","250134","Central Standard Building","Submitted Data","231 S LaSalle St","60604","4.0","false","LOOP","Office","1,181,159","1924","1",,"86","25,670,799.1","20,586,668.7","0","12,751,979.7",,"50","89","50.1","89.4","5,416.9","4.6","41.87854293164","-87.63212057675","POINT (-87.63212057674588 41.87854293163992)","2022-250134"
"2022","136487","Friend Family Health Center at University of Chicago","Submitted Data","800 E 55th St","60615","1.0","false","HYDE PARK","Medical Office","73,327","1964","1",,"17","3,602,053.8","9,507,326","0","0",,"178.8","273.7","172.9","262.8","979.4","13.4","41.79507520681","-87.60609660928","POINT (-87.60609660928338 41.7950752068089)","2022-136487"
"2022","253984","311 W. Superior, LLC","Not Submitted","311 W Superior St","60654","0.0","false","Near North Side",,"91,304",,,,,,,,,,,,,,,,"41.89545597853","-87.63619108137","POINT (-87.63619108136842 41.895455978526634)","2022-253984"
"2022","159892","Promontory Apartments","Submitted Data","5530 S SHORE DR","60637","0.0","false","HYDE PARK",,"183,800",,,,,,,,,,,,,,,,"41.7943512981","-87.58057837804","POINT (-87.5805783780428 41.794351298103074)","2022-159892"
"2022","256779",,"Not Submitted","1342 W TAYLOR ST",,"0.0","false","Near West Side",,"81,194",,,,,,,,,,,,,,,,"41.86945986047","-87.66095568871","POINT (-87.66095568871185 41.86945986047406)","2022-256779"
"2022","159735","Sheridan Plaza Apartments","Submitted Data","4601 4613 N SHERIDAN RD","60640","4.0","false","UPTOWN","Multifamily Housing","165,792","1920","1",,"69","4,564,179.7","5,439,612.7","0","0",,"64.9","119.9","65.9","120.3","890.1","5.8","41.96547960606","-87.65464151233","POINT (-87.65464151233401 41.96547960606311)","2022-159735"
"2022","256904",,"Exempt","2344 S STATE ST","60616",,"true",,,"50,000",,,,,,,,,,,,,,,,"41.84972672846","-87.62716087244","POINT (-87.62716087243727 41.849726728458606)","2022-256904"
"2022","162804","Salvation Army College of Officer Training","Not Submitted","3539  N HALSTED ST","60657","0.0","false","LAKE VIEW",,"53,033",,,,,,,,,,,,,,,,"41.9466160272","-87.64931690164","POINT (-87.64931690164403 41.946616027202)","2022-162804"
"2022","160444","1225 Old Town","Submitted Data","1225 N Wells St","60610","4.0","false","NEAR NORTH SIDE","Multifamily Housing","525,604","2012","1",,"89","12,835,435.4","10,738,394.8","0","0",,"53.8","107.8","55.5","109.5","2,261","5.2","41.90465048246","-87.63436067271","POINT (-87.63436067270801 41.90465048246211)","2022-160444"
"2022","238595",,"Submitted Data","3920 N LAKE SHORE DR","60613","3.5","false","LAKE VIEW","Multifamily Housing","100,460","1968","1",,"75","1,533,241.6","6,555,627.3","0","0",,"88.4","122.2","93.6","126","550.2","6","41.95362285407","-87.64521298622","POINT (-87.6452129862204 41.953622854070325)","2022-238595"
"2022","104239",,"Submitted Data","517 525 W BROMPTON AVE","60657","4.0","false","LAKE VIEW","Multifamily Housing","52,304","1924","1",,"91","530,950.2","2,796,260.3","0","0",,"63.6","84.6","66.7","87.8","218.5","4.2","41.94738624549","-87.6435153307","POINT (-87.64351533069696 41.94738624548753)","2022-104239"
"2022","254076","North Water Apartments & Loews Chicago Hotel","Submitted Data","340 E North Water St","60611","4.0","false","Near North Side","Multifamily Housing","932,299","2015","1",,"95","24,733,043.2","16,105,736.9","0","0",,"47.6","100.4","47.3","98.5","4,113.1","4.8","41.88962593397","-87.61897349987","POINT (-87.61897349986683 41.889625933967935)","2022-254076"
"2022","100334",,"Not Submitted","860  N DEWITT PL","60611","0.0","false","NEAR NORTH SIDE",,"136,600",,,,,,,,,,,,,,,,"41.89848353246","-87.62034623901","POINT (-87.62034623901224 41.898483532461874)","2022-100334"
"2022","130553",,"Not Submitted","4700 N MARINE DR","60640","0.0","false","UPTOWN",,"147,835",,,,,,,,,,,,,,,,"41.96738832295","-87.64928808597","POINT (-87.6492880859722 41.96738832294916)","2022-130553"
"2022","175441","Instituto Health Sciences Career Academy","Not Submitted","2520 S Western Ave","60608","0.0","false","LOWER WEST SIDE",,"93,000",,,,,,,,,,,,,,,,"41.84595343949","-87.68562032825","POINT (-87.68562032824758 41.84595343949136)","2022-175441"
"2022","253983","Fulton Place Condominium Association","Submitted Data","657 W Fulton St","60661","4.0","false","NEAR WEST SIDE","Multifamily Housing","115,000","2006","1",,"93","2,239,043","2,869,414.1","0","0",,"44.4","80.7","44.3","79.3","447.3","3.9","41.8866947362","-87.6450336025","POINT (-87.64503360250157 41.886694736196496)","2022-253983"
"2022","251730","Yates -CPS","Exempt","1839 N Richmond St","60647",,"true","LOGAN SQUARE",,"145,300",,,,,,,,,,,,,,,,"41.91502858324","-87.70024324273","POINT (-87.70024324273244 41.915028583238914)","2022-251730"
"2022","103684","NMH Arkes Family Pavilion","Submitted Data","676 N St Clair St","60611","1.5","false","NEAR NORTH SIDE","Medical Office","675,000","1980","1",,"37","68,429,785.2","240,000","0","0",,"101.7","284.2","102.2","285.6","9,025.9","13.4","41.89485296136","-87.62290180043","POINT (-87.62290180042824 41.89485296136011)","2022-103684"
"2022","251389","Hendricks C A, Thomas A -CPS","Exempt","4320 S Princeton","60609",,"true","FULLER PARK",,"56,857",,,,,,,,,,,,,,,,"41.81565752611","-87.63369721663","POINT (-87.63369721663177 41.815657526108616)","2022-251389"
"2022","175734","617-Downtown Chicago","Exempt","620 N Lasalle St","60654",,"true","NEAR NORTH SIDE",,"70,000",,,,,,,,,,,,,,,,"41.89316465268","-87.63278356381","POINT (-87.63278356381203 41.89316465268042)","2022-175734"
"2022","254165",,"Not Submitted","6551 N Sheridan Rd","60626","0.0","false","Rogers Park",,"80,742",,,,,,,,,,,,,,,,"42.00163407381","-87.66060143183","POINT (-87.66060143182571 42.0016340738147)","2022-254165"
"2022","127990","California Gardens Rehabilitation Center","Submitted Data","2829 S CALIFORNIA BLVD","60608","2.0","false","SOUTH LAWNDALE","Senior Living Community","103,076","1977","1",,"21","4,118,427.6","10,428,719.9","0","0",,"199.7","308.6","204.8","310.2","1,096.4","15.1","41.84044117434","-87.6941145878","POINT (-87.69411458780368 41.840441174338835)","2022-127990"
"2022","251335","Student Center","Submitted Data","2250 N Sheffield Ave","60614","1.0","false","LINCOLN PARK","College/University","149,381","2001","1",,,"10,084,698.1","12,500,368.4","0","0",,"151.2","276.9","156.3","282.3","1,992.3","13.3","41.92323686568","-87.65368542924","POINT (-87.65368542924351 41.92323686568482)","2022-251335"
"2022","149732",,"Submitted Data","1601  S STATE ST","60616","4.0","false","NEAR SOUTH SIDE","Multifamily Housing","92,181","2004","1",,"84","1,600,631.4","2,657,134.7","0","0",,"60","102.5","60.3","101.5","352","5","41.86012122161","-87.62711466838","POINT (-87.62711466837658 41.860121221610186)","2022-149732"
"2022","103628","1K Fulton","Submitted Data","1000 W Fulton St","60607","4.0","false","NEAR WEST SIDE","Office","629,476","1923","1",,"81","20,065,373.8","21,715,017","0","0",,"74.2","140.3","75.2","140.7","3,796.3","6.7","41.88684829549","-87.6522341611","POINT (-87.65223416110463 41.886848295491134)","2022-103628"
"2022","103205",,"Not Submitted","7260  S SOUTH SHORE DR","60649","0.0","false","SOUTH SHORE",,"99,523",,,,,,,,,,,,,,,,"41.76426843282","-87.56099683537","POINT (-87.56099683536523 41.76426843281867)","2022-103205"
"2022","254999","2950 North Sheridan","Submitted Data","2950 N SHERIDAN RD","60657","2.5","false","Lake View","Multifamily Housing","205,313","2017","1",,"53","5,420,910.6","5,600,215.5","0","0",,"81.4","155.5","84.2","158","1,011.5","7.5","41.93580857211","-87.63955263861","POINT (-87.63955263861406 41.93580857210609)","2022-254999"
"2022","251930","The Granville Condominum Association","Submitted Data","1134 W Granville Ave","60660","2.0","false","EDGEWATER","Multifamily Housing","348,150","2008","1",,"46","8,948,110.4","15,286,091.1","0","0",,"100.4","170.4","102.8","172.8","1,990.5","8.2","41.99466862692","-87.65977915265","POINT (-87.65977915264904 41.994668626921786)","2022-251930"
"2022","252274","COP_MADW5957","Submitted Data","5957-73 W Madison St","60644","1.0","false","AUSTIN","Multifamily Housing","62,250","1930","1",,"4","2,854,373.4","3,903,827","0","0",,"108.6","194.2","110.4","195.3","583.3","9.4","41.87998577347","-87.77409844314","POINT (-87.77409844314116 41.879985773471944)","2022-252274"
"2022","103687","Sullivan Center","Submitted Data","1 S State St","60603","3.5","false","LOOP","Office","870,368","1899","1",,"79","21,168,069","34,137,988.3","0","0",,"63.5","109.3","65.8","110.7","4,601.4","5.3","41.88199519764","-87.62764724523","POINT (-87.62764724522982 41.88199519763546)","2022-103687"
"2022","251780","Holy Name Cathedral Parish","Not Submitted","735 N State St","60654","0.0","false","NEAR NORTH SIDE",,"193,226",,,,,,,,,,,,,,,,"41.89586938434","-87.62803323688","POINT (-87.62803323688243 41.895869384341424)","2022-251780"
"2022","251504","Haines Elementary -CPS","Submitted Data","247 W 23rd Place","60616","1.0","false","ARMOUR SQUARE","K-12 School","75,558","1995","1",,"4","4,828,835.7","3,565,600.1","0","0",,"111.1","228.5","111.1","225.2","825.4","10.9","41.84993115543","-87.63378596065","POINT (-87.63378596064732 41.84993115543317)","2022-251504"
"2022","256893",,"Exempt","211 N HARBOR DR","60601",,"true",,"Multifamily Housing","752,929","2021","1",,,,,"0","0",,,,,,,,"41.886554875","-87.61560821774","POINT (-87.6156082177434 41.88655487499947)","2022-256893"
"2022","254168",,"Not Submitted","1050 W  Sheridan","60660","0.0","false","Rogers Park",,"139,554",,,,,,,,,,,,,,,,"41.99832420005","-87.65818830685","POINT (-87.65818830684883 41.99832420004871)","2022-254168"
"2022","251297","Presence St Elizabeth Professional Office Building","Not Submitted","1431 N Western Ave","60622","0.0","false","WEST TOWN",,"71,110",,,,,,,,,,,,,,,,"41.90760944604","-87.68700187308","POINT (-87.68700187308494 41.90760944603504)","2022-251297"
"2022","251668","Ravenswood Elementary -CPS","Submitted Data","4332 N Paulina St","60613","2.0","false","LAKE VIEW","K-12 School","76,423","1915","3",,"45","1,125,168.4","6,295,730","0","0",,"97.1","127.7","101.6","132.5","482.6","6.3","41.96074128586","-87.67095905442","POINT (-87.67095905441798 41.960741285863286)","2022-251668"
"2022","244747","Lancaster Condo Association","Submitted Data","201 N Westshore Dr","60601","2.0","false","LOOP","Multifamily Housing","434,100","2004","1",,"48","8,700,219.6","19,967,599.9","0","0",,"88.8","140.3","93.3","145.1","2,206.5","6.8","41.88617367041","-87.6161086631","POINT (-87.61610866309985 41.88617367041158)","2022-244747"
"2022","163223","Salem Baptist Church of Chicago","Submitted Data","10909 S Cottage Grove Ave","60628","1.0","false","PULLMAN","Worship Facility","91,800","1960","1",,"1","1,707,035.8","130,570,524.6","0","0",,"1,440.9","1,545.5","1,440.9","1,545.5","7,160.1","78","41.69608664718","-87.6089453328","POINT (-87.6089453328002 41.696086647178035)","2022-163223"
"2022","227730",,"Submitted Data","4300 N MARINE DR","60613","4.0","false","UPTOWN","Multifamily Housing","231,174","1930","1",,"82","1,906,684.1","12,541,618.6","0","0",,"74.5","95.5","78.5","98.9","917.3","4.7","41.96104829588","-87.64697134398","POINT (-87.64697134397929 41.96104829587564)","2022-227730"
"2022","256647",,"Not Submitted","2356 East 70th Street",,"0.0","false",,,"54,884",,,,,,,,,,,,,,,,"41.76817669901","-87.56750371285","POINT (-87.5675037128462 41.76817669901062)","2022-256647"
"2022","251319","03262-Irving Park & Cicero","Submitted Data","4660 W Irving Park Rd","60641","4.0","false","PORTAGE PARK","Supermarket/Grocery Store","70,790","1997","1",,"77","9,205,524.6","2,544,800","0","0",,"166","401.9","166.6","400","1,347.7","19","41.9535544384","-87.7450553112","POINT (-87.74505531119503 41.95355443840363)","2022-251319"
"2022","119039","Churchview Manors and Churview supportive Living","Submitted Data","2626 2644 W 63RD ST","60629","1.0","false","CHICAGO LAWN","Senior Living Community","74,185","2004","1",,"25","2,192,672.5","6,039,580","0","0",,"122.2","185.2","127.2","190.5","609.6","9","41.7792809902","-87.68967948644","POINT (-87.68967948643505 41.779280990198004)","2022-119039"
"2022","251501","Mayer -CPS","Submitted Data","2250 N Clifton Ave","60614","1.5","false","LINCOLN PARK","K-12 School","73,514","1959","1",,"34","2,240,807.2","3,964,220.1","0","0",,"84.4","142","86.4","142.1","505.7","6.9","41.92317656654","-87.65732331467","POINT (-87.65732331466856 41.923176566542786)","2022-251501"
"2022","115956",,"Submitted Data","1245  S WOOD ST","60608","2.0","false","NEAR WEST SIDE","Senior Living Community","97,974","2001","1",,"50","2,021,357.5","6,621,700","0","0",,"103.3","150.7","107.3","153.6","618","7.4","41.86539785619","-87.67116221948","POINT (-87.6711622194772 41.86539785619372)","2022-115956"
"2022","251959","Moody Bible Institute, Torrey-Gray Doane","Submitted Data","840 N LaSalle St","60610","3.0","false","NEAR NORTH SIDE","College/University","86,585","1939","1",,,"7,031,934","0","0","0",,"81.2","227.4","81.2","227.4","926.2","10.7","41.89782822978","-87.63288020747","POINT (-87.63288020747434 41.89782822977598)","2022-251959"
"2022","256775",,"Not Submitted","10355 S WOODLAWN AVE","60628","0.0","false","Pullman",,"50,000",,,,,,,,,,,,,,,,"41.70591651501","-87.59412904802","POINT (-87.59412904802028 41.705916515012575)","2022-256775"
"2022","251726","Dyett HS -CPS","Submitted Data","555 E 51st St","60615","1.0","false","WASHINGTON PARK","K-12 School","162,840","1970","2",,"3","8,126,374","21,116,560.5","0","0",,"179.6","275.9","189.7","286.5","2,192","13.5","41.80204982153","-87.61192836249","POINT (-87.61192836248603 41.802049821529806)","2022-251726"
"2022","251650","Brentano Math & Science Academy -CPS","Submitted Data","2723 N Fairfield Ave","60647","3.5","false","LOGAN SQUARE","K-12 School","117,104","1893","1",,"74","1,541,104.8","6,210,510","0","0",,"66.2","92.5","68.5","95","532.9","4.6","41.93097047175","-87.69625758177","POINT (-87.69625758176569 41.93097047175388)","2022-251650"
"2022","106052",,"Submitted Data","6214 6218 N WINTHROP AVE","60660","4.0","false","EDGEWATER","Multifamily Housing","58,321","1969","1",,"92","885,330.4","3,507,483.6","0","0",,"75.3","105.7","77.9","107.7","302.9","5.2","41.99501545757","-87.65851603573","POINT (-87.65851603573412 41.995015457566545)","2022-106052"
"2022","252326","-","Submitted Data","6200-42 N Hoyne Ave","60659","1.5","false","WEST RIDGE","Multifamily Housing","177,250","1950","1",,"31","3,378,006.3","13,520,020.4","0","0",,"102.3","143.1","106.3","147.4","1,163","7","41.99431203543","-87.68253912417","POINT (-87.68253912416762 41.99431203543439)","2022-252326"
"2022","134775","116 S Michigan Ave","Not Submitted","116 S Michigan Ave","60603","0.0","false","LOOP",,"114,507",,,,,,,,,,,,,,,,"41.88039583826","-87.62450172159","POINT (-87.62450172159464 41.88039583825962)","2022-134775"
"2022","255165","Alta Roosevelt","Submitted Data","801 S Financial Place","60605","4.0","false","LOOP","Multifamily Housing","744,961","2017","1",,"87","14,813,187.6","15,072,831.5","0","0",,"47.2","90.5","47.4","89.7","2,751.7","4.3","41.87210229664","-87.63279713396","POINT (-87.6327971339645 41.87210229663722)","2022-255165"
"2022","252073","118 S Clinton St","Submitted Data","118 S Clinton St","60661","1.0","false","NEAR WEST SIDE","Office","78,751","1910","1",,"30","4,949,388.8","0","0","0",,"62.8","176","62.6","175.4","651.9","8.3","41.879957071","-87.64128000375","POINT (-87.64128000375057 41.87995707099538)","2022-252073"
"2022","251717","Hancock College Prep HS -CPS","Exempt","4034 W 56th St","60629",,"true","WEST ELSDON",,"169,086",,,,,,,,,,,,,,,,"41.79149113615","-87.72449160823","POINT (-87.72449160823318 41.79149113615484)","2022-251717"
"2022","160453","Halsted Flats","Submitted Data","3740 N Halsted St","60613","3.0","false","LAKE VIEW","Multifamily Housing","329,144","2014","1",,"49","8,772,688.3","10,792,391.7","0","0",,"85.4","156.7","84.2","153.4","1,728.7","7.5","41.95029037919","-87.64973152311","POINT (-87.64973152310914 41.950290379189425)","2022-160453"
"2022","175747",,"Submitted Data","2014 2036 S MICHIGAN AVE","60616","3.0","false","NEAR SOUTH SIDE","Multifamily Housing","143,900","1920","1",,"69","2,639,632.4","6,681,000.2","0","0",,"66.6","103","68.7","105.1","702.5","5","41.85502940956","-87.62401588817","POINT (-87.62401588817339 41.85502940955694)","2022-175747"
"2022","251664","Trumbull Elementary, Lyman -CPS","Not Submitted","5200 N Ashland Ave","60640","0.0","false","EDGEWATER",,"91,527",,,,,,,,,,,,,,,,"41.97621643722","-87.66976160214","POINT (-87.6697616021359 41.97621643722122)","2022-251664"
"2022","113335",,"Submitted Data","2024 2030 S WABASH AVE","60616","4.0","false","NEAR SOUTH SIDE","Multifamily Housing","82,100","1920","1",,"87","1,163,215.6","3,718,300.1","0","0",,"78.6","115.3","81.7","117","350.7","5.6","41.85472112749","-87.62568756593","POINT (-87.62568756593224 41.85472112748777)","2022-113335"
"2022","124961",,"Submitted Data","2769 2789 N MILWAUKEE AVE","60647","3.0","false","LOGAN SQUARE","Multifamily Housing","50,000","1920","1",,,"1,213,522.1","4,366,789.2","0","0",,"111.6","159.7","116.8","162.6","391.8","7.8","41.93157946354","-87.71129631772","POINT (-87.71129631772311 41.93157946354478)","2022-124961"
"2022","134783","Alice B. Sharp Building","Not Submitted","37 S Wabash Ave","60603","0.0","false","LOOP",,"227,736",,,,,,,,,,,,,,,,"41.88114721565","-87.62603473521","POINT (-87.6260347352098 41.88114721565142)","2022-134783"
"2022","254365","Wolf Point West","Not Submitted","326 N ORLEANS ST","60654","0.0","false","Near North Side",,"430,000",,,,,,,,,,,,,,,,"41.8879842841","-87.63653195036","POINT (-87.63653195036484 41.8879842841039)","2022-254365"
"2022","175872","Piper's Alley","Submitted Data","230 W North Ave","60610",,"true","LINCOLN PARK","Mixed Use Property","355,532","1977","1",,,"13,225,901.5","9,308,692.6","0","0",,"102.6","213.2","101.6","209.1","2,236.5","10.2","41.91125996781","-87.63598750991","POINT (-87.63598750990852 41.911259967809826)","2022-175872"
"2022","256844",,"Submitted Data","1308 N Elston","60642","4.0","false",,"Office","110,951","1914","2",,,"1,414,755.1","0","0","0",,"12.8","35.7","12.8","35.7","186.3","1.7","41.90565114934","-87.65979889417","POINT (-87.6597988941693 41.905651149337345)","2022-256844"
"2022","256422","Materials & Metals Building","Not Submitted","3350 S Federal Street","60616","0.0","false","DOUGLAS",,"68,398",,,,,,,,,,,,,,,,"41.83305084778","-87.62919078852","POINT (-87.62919078852039 41.833050847779816)","2022-256422"
"2022","116144",,"Submitted Data","633  S PLYMOUTH CT","60605","4.0","false","LOOP","Multifamily Housing","125,000","1895","1",,"92","1,965,670.6","4,546,616.1","0","0",,"52.1","82.2","52.8","81.9","500.4","4","41.8736343079","-87.62852667939","POINT (-87.62852667938513 41.87363430790008)","2022-116144"
"2022","172126",,"Not Submitted","1340 1350 W FULLERTON AVE","60614","0.0","false","LINCOLN PARK",,"128,002",,,,,,,,,,,,,,,,"41.92534522487","-87.66216901069","POINT (-87.66216901069333 41.92534522487281)","2022-172126"
"2022","175346",,"Submitted Data","4700  S COTTAGE GROVE AVE","60615","1.0","false","GRAND BOULEVARD","Multifamily Housing","201,415","2013","5",,"8","10,141,479.4","5,117,380.3","0","0",,"75.8","167.7","76.6","167.2","1,607.6","8","41.80948542754","-87.60671081843","POINT (-87.60671081843334 41.809485427538256)","2022-175346"
"2022","113569",,"Submitted Data","1310  N RITCHIE CT","60610","2.0","false","NEAR NORTH SIDE","Multifamily Housing","198,780","1963","1",,"49","4,110,562.4","14,441,422.4","0","0",,"102.1","146.8","108.1","152.2","1,308.5","7.2","41.90621199101","-87.62674662719","POINT (-87.6267466271917 41.9062119910102)","2022-113569"
