"Data Year","ID","Property Name","Reporting Status","Address","ZIP Code","Chicago Energy Rating","Exempt From Chicago Energy Rating","Community Area","Primary Property Type","Gross Floor Area - Buildings (sq ft)","Year Built","# of Buildings","Water Use (kGal)","ENERGY STAR Score","Electricity Use (kBtu)","Natural Gas Use (kBtu)","District Steam Use (kBtu)","District Chilled Water Use (kBtu)","All Other Fuel Use (kBtu)","Site EUI (kBtu/sq ft)","Source EUI (kBtu/sq ft)","Weather Normalized Site EUI (kBtu/sq ft)","Weather Normalized Source EUI (kBtu/sq ft)","Total GHG Emissions (Metric Tons CO2e)","GHG Intensity (kg CO2e/sq ft)","Latitude","Longitude","Location","Row_ID"
"2023","101710","AlgonOuin #1","Submitted","1605 E. 50th Street","60615","1.0",,"Kenwood","Multifamily Housing","59,310","1950","1",,"11","2,949,709.8","2,256,520",,,,"87.8","179.2","87.8","179.2","532.6","9","41.910944","-87.626393","POINT (-87.626393 41.910944)","2023-101710"
"2023","160211","633 N St. Clair","Submitted","633 N St. Clair","60611","4.0",,"Near North Side","Office","632,163","1991","1",,"89","22,004,849.6","14,385.6",,,,"34.8","97.5","35.6","99.6","3,079.7","4.9","41.74715","-87.628002","POINT (-87.628002 41.74715)","2023-160211"
"2023","239016","Avenue East Condominiums","Submitted","160 East Illinois Street","60611","2.5",,"Near North Side","Multifamily Housing","258,647","2007","1",,"59","7,058,395.8","7,884,286.8",,,,"57.8","108.4","61.9","113.7","1,406.4","5.4","41.7909","-87.671932","POINT (-87.671932 41.7909)","2023-239016"
"2023","252049","Bond Chapel","Submitted","1025 East 58th Street","60637","4.0",,"Hyde Park","Worship Facility","5,252","1926","1",,"3","107,051.5",,"707,421.1",,,"155.1","219.1","185.9","256.2","62","11.8","41.924508","-87.638223","POINT (-87.638223 41.924508)","2023-252049"
"2023","250120","Sinai Schwab Rehabilitation Hospital","Submitted","1401 S California Ave","60608","2.0",,"North Lawndale","Outpatient Rehabilitation/Physical Therapy","177,380","1948","6",,,"9,671,173.4","5,193,899.9",,,,"83.8","183.4","88","188.1","1,629.1","9.2","41.927891","-87.736002","POINT (-87.736002 41.927891)","2023-250120"
"2023","250016","Loyola Park","Not Submitted","1230 W Greenleaf Ave","60626","0.0",,"Rogers Park","Other - Recreation",,,,,,,,,,,,,,,,,"41.78429","-87.688512","POINT (-87.688512 41.78429)","2023-250016"
"2023","232458","Harper SOuare Housing Co-Op","Submitted","4800 S. Lake Park Ave.","60615","2.5",,"Kenwood","Multifamily Housing","627,680","1974","1",,"37","13,675,052","37,696,682.7",,,,"81.8","124.1","89.4","132.3","3,915.7","6.2","41.980116","-87.655237","POINT (-87.655237 41.980116)","2023-232458"
"2023","251456","Carnegie","Submitted","1414 E 61st Pl","60637","1.0",,"Woodlawn","K-12 School","63,979","1957","3",,"25","1,561,576.9","4,308,160",,,,"91.7","139","104.3","152.2","447.3","7","41.965013","-87.677281","POINT (-87.677281 41.965013)","2023-251456"
"2023","251322","990 West Fullerton Building","Submitted","990 West Fullerton Ave","60614","4.0",,"Lincoln Park","College/University","91,963","1980","1",,,"2,983,825.5","2,064,716",,,,"54.9","114.4","55","114.7","527.2","5.7","41.778723","-87.682128","POINT (-87.682128 41.778723)","2023-251322"
"2023","251467","Holmes Elementary -CPS","Not Covered 2024","955 W Garfield Blvd","60621",,"true","Englewood","K-12 School",,,,,,,,,,,,,,,,,"41.793339","-87.64971","POINT (-87.64971 41.793339)","2023-251467"
"2023","172584","ASPIRA Early College High School","Not Submitted","3986 W Barry Ave","60618","0.0",,"Avondale","Commercial",,,,,,,,,,,,,,,,,"41.752251","-87.655245","POINT (-87.655245 41.752251)","2023-172584"
"2023","173655","ACME Hotel Company","Submitted","15 E Ohio St","60611","4.0",,"Near North Side","Hotel","80,000","1927","1","3,785","82","3,186,192","1,863,184.5",,,,"63.1","136","65.1","140.5","544.8","6.8","41.930127","-87.746389","POINT (-87.746389 41.930127)","2023-173655"
"2023","174135","Times SOuare Apartments","Submitted","869 Buena","60613","2.0",,"Uptown","Multifamily Housing","142,000","1923","1",,"46","2,987,718.2","9,821,487.7",,,,"90.2","131.5","98.1","140.8","939.7","6.6","41.781977","-87.61477","POINT (-87.61477 41.781977)","2023-174135"
"2023","176010","420 N Wabash Ave","Submitted","420 N. Wabash Ave.","60611","1.0",,"Near North Side","Office","102,450","1906","1",,"23","8,165,581.2","5,107,400.6",,,,"129.6","275.5","132.8","283.1","1,413.8","13.8","41.765712","-87.566626","POINT (-87.566626 41.765712)","2023-176010"
"2023","251368","Washington HS","Submitted","3535 E 114th St","60617","3.0",,"East Side","K-12 School","219,291","1957","1",,"38","4,612,101.8","14,829,340.1",,,,"88.7","129.9","101.2","143.1","1,433","6.5","41.845481","-87.621986","POINT (-87.621986 41.845481)","2023-251368"
"2023","224416","400 East Ohio Condominium Association","Submitted","400 E Ohio Street","60611","1.0",,"Near North Side","Multifamily Housing","285,156","1981","1",,"28","13,397,365.2","5,589,237.5",,,,"66.6","152.1","72.2","164.5","2,171.4","7.6","41.881906","-87.628097","POINT (-87.628097 41.881906)","2023-224416"
"2023","256955","Fletcher Lofts, LLC","Submitted","3141 N Sheffield Ave.","60657","1.0",,"Lake View","Multifamily Housing","72,570","2000","1",,"30","2,270,439","2,688,428",,,,"68.3","126.5","72.9","133.3","460.5","6.3","41.997463","-87.655466","POINT (-87.655466 41.997463)","2023-256955"
"2023","158394","Michigan - 180 Property LLC","Submitted","180 N Michigan","60601","2.0",,"Loop","Office","231,521","1927","1",,,"8,824,280.8","7,780,096.4",,,,"71.7","142","76.7","147.9","1,647.9","7.1","41.933931","-87.686598","POINT (-87.686598 41.933931)","2023-158394"
"2023","251784","Parish_OuigleyCenter","Submitted","835 N Rush Street","60611","2.0",,"Near North Side","Office","84,100","1917","1",,"46","3,487,618.4","4,366,700",,,,"93.4","170.6","101.4","179","719.9","8.6","41.994817","-87.714343","POINT (-87.714343 41.994817)","2023-251784"
"2023","105989","C5501WAS (25112)","Submitted","5501 W Washington Blvd","60644","2.5",,"Austin","Multifamily Housing","118,890","1929","1","8,888","59","1,982,320.8","9,126,553.5",,,,"93.4","127.3","102.6","136.9","762.1","6.4","41.90695","-87.630225","POINT (-87.630225 41.90695)","2023-105989"
"2023","114866","Barclay Condominium Home Owners' Association, Inc","Submitted","4940 S. East End Ave.","60615","3.5",,"Kenwood","Multifamily Housing","146,840","1928","1",,"76","1,458,561.1","9,638,038.5",,,,"75.6","96.7","84","106","716","4.9","41.741374","-87.662357","POINT (-87.662357 41.741374)","2023-114866"
"2023","100431","1100 N Clark St","Not Submitted","1100 N Clark St","60610","0.0",,"Near North Side","Automobile Dealership",,,,,,,,,,,,,,,,,"41.912718","-87.68491","POINT (-87.68491 41.912718)","2023-100431"
"2023","254262","Sunnycourt Condominiums","Submitted","906-934 W Sunnyside","60640","1.5",,"Uptown","Multifamily Housing","75,600","1926","1",,"39","699,585.5","6,237,309.2",,,,"91.8","112.5","101","122.1","429.2","5.7","41.893519","-87.633972","POINT (-87.633972 41.893519)","2023-254262"
"2023","243108","(IIL733) - 3600 Condominium (3600 N. Lake Shore Drive)","Submitted","3600 N. Lake Shore Drive","60613","1.0",,"Lake View","Multifamily Housing","841,880","1960","2",,"26","14,087,922.6","65,455,827.2",,,,"94.5","128.5","103.1","137.3","5,447.8","6.5","41.86356","-87.721586","POINT (-87.721586 41.86356)","2023-243108"
"2023","112110","Hyatt House Chicago","Not Submitted","1835 W Harrison St","60612","0.0",,"Near West Side","Lodging",,,,,,,,,,,,,,,,,"41.945349","-87.650424","POINT (-87.650424 41.945349)","2023-112110"
"2023","251744","Disney II HS","Submitted","3900 N Lawndale Ave","60618","3.5",,"Irving Park","K-12 School","156,960","1924","3",,"80","1,791,467.2","7,898,179.7",,,,"61.7","84.8","74.3","98","670.2","4.3","41.884632","-87.622248","POINT (-87.622248 41.884632)","2023-251744"
"2023","172177","Third Baptist Church of Chicago","Not Covered 2024","1551 W 95th St","60643",,"true","Washington Heights","Commercial",,,,,,,,,,,,,,,,,"41.893436","-87.629553","POINT (-87.629553 41.893436)","2023-172177"
"2023","240752","200 N. Dearborn CA","Submitted","200 N. Dearborn Street","60601","2.0",,"Loop","Multifamily Housing","359,953","1989","1",,"44","8,500,636.5","20,033,149.6",,,,"79.3","124.6","86.4","132","2,253.5","6.3","41.897304","-87.634804","POINT (-87.634804 41.897304)","2023-240752"
"2023","250055","Von Steuben HS","Submitted","5039 N Kimball Ave","60625","4.0",,"North Park","K-12 School","248,453","1930","1",,"89","3,164,855.4","8,605,740",,,,"47.4","72","56","81.1","899.9","3.6","42.011484","-87.66405","POINT (-87.66405 42.011484)","2023-250055"
"2023","159000","Harlan Comm Academy -CPS","Not Covered 2024","9652 S Michigan Ave","60628",,"true","Roseland","K-12 School",,,,,,,,,,,,,,,,,"41.93053","-87.680107","POINT (-87.680107 41.93053)","2023-159000"
"2023","238355","Museum Park Tower 1 Condominium Association","Submitted","1322 S. Prairie Ave","60605","1.5",,"Near South Side","Multifamily Housing","279,381","2001","1",,"35","8,716,080.1","16,115,600.3",,,,"88.9","147.9","95.9","154.2","2,075.5","7.4","41.903424","-87.669405","POINT (-87.669405 41.903424)","2023-238355"
"2023","251755","Rogers","Submitted","7345 N Washtenaw Ave","60645","1.5",,"West Ridge","K-12 School","89,910","1937","6",,"35","1,963,377.4","4,955,189.9",,,,"76.9","119","93.4","136.2","537.9","6","41.848155","-87.699127","POINT (-87.699127 41.848155)","2023-251755"
"2023","101739","One South Dearborn","Submitted","1 South Dearborn","60603","4.0",,"Loop","Office","942,732","2005","1","6,059","81","39,542,224.4",,,,,"41.9","117.4","43.8","122.6","5,532.7","5.9","41.880032","-87.659376","POINT (-87.659376 41.880032)","2023-101739"
"2023","250150","Reid Murdoch Center","Submitted","315-331 N. Lasalle","60654","1.5",,"Near North Side","Office","335,281","1912","1",,"38","17,329,813.9","19,033,100.9",,,,"108.5","204.3","116","212","3,435.7","10.2","41.869768","-87.624266","POINT (-87.624266 41.869768)","2023-250150"
"2023","175818","Chicago IL HL","Submitted","1816 North Clark St","60614","1.5",,"Lincoln Park","Hotel","96,642","1980","1","644","40","5,573,489.4","4,199,079.7",,,,"101.1","207.1","104","210.1","1,002.9","10.4","41.881782","-87.62791","POINT (-87.62791 41.881782)","2023-175818"
"2023","257083","Park Boulevard","Not Covered 2024","42 W 37th St","60609",,"true","Douglas","Residential",,,,,,,,,,,,,,,,,"41.8275","-87.628177","POINT (-87.628177 41.8275)","2023-257083"
"2023","101904",,"Not Submitted","2115  W Farwell Ave","60645","0.0",,"West Ridge","Residential",,,,,,,,,,,,,,,,,"42.009003","-87.666539","POINT (-87.666539 42.009003)","2023-101904"
"2023","113474","City-Towne Condominium Association","Submitted","517-523 N. Halsted St.","60622","3.5",,"West Town","Multifamily Housing","88,776","1935","1",,"73","1,681,731","4,240,663.2",,,,"66.7","103.2","74.6","111.3","460.5","5.2","41.94646","-87.646874","POINT (-87.646874 41.94646)","2023-113474"
"2023","100533","Urban Prep - Englewood HS","Submitted","6201 S Stewart Avenue","60621","1.0",,"Englewood","K-12 School","188,800","1979","1",,"6","9,446,149.2","13,421,709.8",,,,"121.1","214.7","130.4","223.5","2,034.6","10.8","41.886708","-87.627883","POINT (-87.627883 41.886708)","2023-100533"
"2023","256634","The Burnham at Woodlawn Park","Submitted","6134 S. Cottage Grove Avenue","60637","4.0",,"Woodlawn","Multifamily Housing","73,673","2015","1","4,092","96","1,489,939.6","858,648.7",,,,"31.9","68.9","33","70.1","254.4","3.5","42.001695","-87.656651","POINT (-87.656651 42.001695)","2023-256634"
"2023","251561","New Field","Submitted","1707 W Morse Ave","60626","1.0",,"Rogers Park","K-12 School","85,500","2003","1",,"3","4,222,793.3","6,253,850",,,,"122.5","215.1","138.8","232.2","923","10.8","41.919383","-87.689074","POINT (-87.689074 41.919383)","2023-251561"
"2023","134421","Market Place at Six Corners 10361","Not Submitted","4612 - 4730 W Irving Park Rd","60641","0.0",,"Portage Park","Other - Mall",,,,,,,,,,,,,,,,,"41.93645","-87.650552","POINT (-87.650552 41.93645)","2023-134421"
"2023","119689","A&M 303 WEST ERIE, LLC","Submitted","303 West Erie","60654",,"true","Near North Side","Office","62,849","1900","1",,,"3,892,694",,,,,"61.9","173.4","66.6","186.4","544.7","8.7","42.01185","-87.70464","POINT (-87.70464 42.01185)","2023-119689"
"2023","132117","1914 - DAN RYAN","Submitted","200-232 W 87th St","60620","2.5",,"Chatham","Retail Store","103,580","1997","1","3,108","57","3,887,349.4","6,849,499.9",,,,"103.7","174.5","113.9","185.2","907.7","8.8","41.779077","-87.688582","POINT (-87.688582 41.779077)","2023-132117"
"2023","161150","1104 S Wabash","Submitted","1104 S Wabash","60605","4.0",,"Loop","College/University","166,094","1913","1","902",,"6,221,519.7","4,033,262",,,,"61.7","130.4","65.5","134.3","1,084.7","6.5","41.945101","-87.641602","POINT (-87.641602 41.945101)","2023-161150"
"2023","132551","Aunt Martha's Youth Service Center, Inc.","Submitted","5001-5013 S. Michigan Avenue","60615","1.0",,"Grand Boulevard","Other - Services","60,150","1975","1",,,"1,706,429.9","4,858,800.2",,,,"109.1","164.3","124.8","180.3","496.8","8.3","41.933699","-87.642915","POINT (-87.642915 41.933699)","2023-132551"
"2023","236822","21 W. Chestnut Condominium Association","Submitted","21 W Chestnut St","60610","1.5",,"Near North Side","Multifamily Housing","169,377","1999","1",,"32","4,699,413.6","9,697,824.1",,,,"85","137.8","92.8","147.1","1,172.6","6.9","41.886488","-87.661813","POINT (-87.661813 41.886488)","2023-236822"
"2023","251876","Sizemore - Shabazz Charter","Not Covered 2024","1540 W 84th St","60620",,"true","Auburn Gresham","K-12 School",,,,,,,,,,,,,,,,,"41.74158","-87.66223","POINT (-87.66223 41.74158)","2023-251876"
"2023","251621","Hughes L","Submitted","240 W 104th St","60628","1.0",,"Roseland","K-12 School","100,000","2008","1",,"11","5,084,449.9","2,545,559.9",,,,"76.3","169.1","81.6","173.8","846.6","8.5","41.861573","-87.620664","POINT (-87.620664 41.861573)","2023-251621"
"2023","127877","Howard & Western Shopping Center","Submitted","7510-7578 North Western Avenue","60645","3.0",,"West Ridge","Strip Mall","69,338","1957","1",,,"3,247,229.1","1,008,045",,,,"61.4","146.4","61.1","145.7","507.9","7.3","41.884586","-87.63101","POINT (-87.63101 41.884586)","2023-127877"
"2023","256778",,"Not Submitted","3939 W Devon Ave","60659","0.0",,"Forest Glen",,,,,,,,,,,,,,,,,,"41.693067","-87.680131","POINT (-87.680131 41.693067)","2023-256778"
"2023","103312","199 East Lake Shore Drive","Submitted","199 East Lake Shore Drive","60611","1.0",,"Near North Side","Multifamily Housing","62,000","1913","1",,,"1,962,753.1","4,282,000",,,,"100.7","161.2","110.9","171.9","502.1","8.1","41.85563","-87.621735","POINT (-87.621735 41.85563)","2023-103312"
"2023","250146","Brooks Building LLC","Submitted","223 Jackson Blvd.","60606","2.0",,"Loop","Office","167,574","1909","1",,"43","10,089,620","4,124,520.1",,,,"84.8","194.4","90.3","203.9","1,630.8","9.7","41.888878","-87.632662","POINT (-87.632662 41.888878)","2023-250146"
"2023","251678","Hernandez","Submitted","3510 W 55th St","60632","4.0",,"Gage Park","K-12 School","127,162","2009","1",,"65","3,573,408.1","1,660,730",,,,"41.2","92.4","44.8","96.1","588.2","4.6","41.896378","-87.647891","POINT (-87.647891 41.896378)","2023-251678"
"2023","172131","1765 N Elston Ave","Submitted","1765 N. Elston","60642","4.0",,"West Town","Office","128,600","2013","1",,"85","4,913,642","3,315,006",,,,"64","134.1","69.8","139.1","863.6","6.7","41.890569","-87.719984","POINT (-87.719984 41.890569)","2023-172131"
"2023","243916","2930 Sheridan Tower Condominium Association","Submitted","2930 N. Sheridan Rd.","60657","3.0",,"Lake View","Multifamily Housing","242,000","1956","1",,"65","5,150,703.8","12,744,561.6",,,,"73.9","114.9","81.1","122.1","1,397.6","5.8","41.971606","-87.724641","POINT (-87.724641 41.971606)","2023-243916"
"2023","256879","2755 N Milwaukee Avenue","Submitted","2755 N Milwaukee Avenue","60647","4.0",,"Logan Square","Multifamily Housing","72,000","2021","1",,"91","1,205,262.4","2,703,715.2",,,,"54.3","86.3","54","85.6","312.2","4.3","42.00803","-87.665355","POINT (-87.665355 42.00803)","2023-256879"
"2023","175053","5330 N Damen","Submitted","5330 N Damen Ave","60625","1.0",,"Lincoln Square","Multifamily Housing","50,000","1974","1",,"12","435,343.4","5,652,644.7",,,,"121.8","143.1","121.3","141.8","361.2","7.2","41.956791","-87.77705","POINT (-87.77705 41.956791)","2023-175053"
"2023","256772",,"Not Covered 2024","128 S Laflin St","60607",,"true","Near West Side",,,,,,,,,,,,,,,,,,"41.884624","-87.620476","POINT (-87.620476 41.884624)","2023-256772"
"2023","146965",,"Not Submitted","1610 1620 W Fullerton Ave","60614","0.0",,"Lincoln Park","Residential",,,,,,,,,,,,,,,,,"41.919226","-87.636776","POINT (-87.636776 41.919226)","2023-146965"
"2023","136487","(IL0214) - 800 E 55th Building (800 E 55th St )","Submitted","800 E 55th St","60615","2.0",,"Hyde Park","Medical Office","73,327","1964","1",,"24","3,047,707","8,641,146.4",,,,"159.4","240.1","163.5","242.8","885.4","12.1","41.767017","-87.638547","POINT (-87.638547 41.767017)","2023-136487"
"2023","251417","Chalmers-CPS","Not Covered 2024","2745 W Roosevelt Rd","60608",,"true","North Lawndale","K-12 School",,,,,,,,,,,,,,,,,"41.799598","-87.593761","POINT (-87.593761 41.799598)","2023-251417"
"2023","118695","260-Senior Suites of Bridgeport","Submitted","2825 S. Halsted","60608","3.5",,"Bridgeport","Senior Living Community","69,455","2005","1","3,643","75","1,609,921.5","3,767,799.9",,,,"77.4","121.9","83.9","129.6","425.4","6.1","41.928849","-87.706817","POINT (-87.706817 41.928849)","2023-118695"
"2023","254536","Optima Signature","Submitted","220 E Illinois St","60611","2.5",,"Near North Side","Multifamily Housing","872,200","2017","1",,"52","27,431,428.3","14,444,117.6",,,,"48","105.5","50.7","110.5","4,605.4","5.3","41.813941","-87.60681","POINT (-87.60681 41.813941)","2023-254536"
"2023","101748","One South Wacker","Submitted","1 S. Wacker","60606","4.0",,"Loop","Office","1,387,952","1982","1",,"82","53,987,356.2",,,,,"38.9","108.9","41.1","114.9","7,553.9","5.4","41.89034","-87.763241","POINT (-87.763241 41.89034)","2023-101748"
"2023","251579","Henderson Elementary, CPS","Not Covered 2024","5640 S Wolcott Ave","60636",,"true","West Englewood","K-12 School",,,,,,,,,,,,,,,,,"42.017095","-87.677799","POINT (-87.677799 42.017095)","2023-251579"
"2023","148481","1154 W LUNT","Submitted","7001-7013 N Sheridan","60626","4.0",,"Rogers Park","Multifamily Housing","51,959","1920","1",,"78","81,011.1","3,959,700.2",,,,"77.8","84.4","91.8","99.1","221.7","4.3","41.958548","-87.786919","POINT (-87.786919 41.958548)","2023-148481"
"2023","251236","1120 N Lake Shore Drive","Submitted","1120 N. Lake Shore Drive","60611","4.0",,"Near North Side","Multifamily Housing","137,739","1924","1",,"81","1,524,935.1","8,613,783",,,,"73.6","96.7","81.2","104.4","670.9","4.9","41.885392","-87.656901","POINT (-87.656901 41.885392)","2023-251236"
"2023","120347","1033 W Van Buren","Submitted","1033 W Van Buren","60607","4.0",,"Near West Side","Office","86,401","1904","1","450","81","2,461,471.7","2,861,719.3",,,,"61.6","114.5","73.3","136.3","496.4","5.7","41.89672","-87.617568","POINT (-87.617568 41.89672)","2023-120347"
"2023","241892","CityView Condominium Association (241892)","Submitted","440 North Mcclurg Court","60611","4.0",,"Near North Side","Multifamily Housing","506,955","1991","1",,"95","6,742,639.1","20,036,768.3",,,,"52.8","78.7","58.6","84.5","2,007.7","4","41.88063","-87.654523","POINT (-87.654523 41.88063)","2023-241892"
"2023","158099","61480 - Galewood 14","Submitted","5530 W Homer St","60639","1.0",,"Austin","Movie Theater","57,976","2007","1","1,056",,"5,244,075.4","1,869,210.1",,,,"122.7","287.1","130.3","293.8","833","14.4","41.878836","-87.678205","POINT (-87.678205 41.878836)","2023-158099"
"2023","256797",,"Not Submitted","1135 W Sheridan Rd","60660","0.0",,"Edgewater",,,,,,,,,,,,,,,,,,"41.883286","-87.670728","POINT (-87.670728 41.883286)","2023-256797"
"2023","251925","Peter V. Byrne Hall","Submitted","2219 N. Kenmore","60614","4.0",,"Lincoln Park","College/University","77,485","1968","1",,,"1,669,879.2","6,905,430.7",,,,"110.7","153.9","125.3","169.3","600.4","7.7","41.895524","-87.631293","POINT (-87.631293 41.895524)","2023-251925"
"2023","256489","640 North Wells","Submitted","640 North Wells St.","60642","4.0",,"Near North Side","Multifamily Housing","273,509","2017","1","11,710","61","8,334,923.9","6,063,967.7",,,,"52.6","108.6","57.3","115.1","1,488.3","5.4","41.800186","-87.588918","POINT (-87.588918 41.800186)","2023-256489"
"2023","173948","8598 - LINCOLN & MCCORMICK","Submitted","6211 N Lincoln Ave","60659","3.5",,"North Park","Retail Store","114,727","2004","1","1,088","74","4,642,835","3,937,000.1",,,,"74.8","149.3","82.1","155.6","858.7","7.5","41.793087","-87.602504","POINT (-87.602504 41.793087)","2023-173948"
"2023","229826","Waldorf Astoria Hotel","Not Submitted","11 E Walton St","60611","0.0",,"Near North Side","Hotel",,,,,,,,,,,,,,,,,"41.824964","-87.61124","POINT (-87.61124 41.824964)","2023-229826"
"2023","235970","5100 Marine Drive Condominium Association","Submitted","5100 N Marine Dr","60640","3.0",,"Uptown","Multifamily Housing","276,176","1969","1",,"62","10,016,309.3","5,954,288.4",,,,"57.8","124.2","63.7","137.2","1,717.7","6.2","41.882118","-87.627674","POINT (-87.627674 41.882118)","2023-235970"
"2023","251569","Hay Community Academy, John -CPS","Not Covered 2024","1016 N Laramie Ave","60651",,"true","Austin","K-12 School",,,,,,,,,,,,,,,,,"41.89903","-87.755707","POINT (-87.755707 41.89903)","2023-251569"
"2023","134735","Searle Chemistry Laboratory","Submitted","5715-35 S Ellis Ave","60637","1.0",,"Hyde Park","Laboratory","85,570","2009","1","2,512",,"13,843,787.6","101,076","21,818,546.9","15,404,328.7",,"598","924.8","624.6","961.4","4,202.9","49.1","41.890729","-87.629386","POINT (-87.629386 41.890729)","2023-134735"
"2023","172541","Tandem Lofts Condo Association","Submitted","1631 S. Michigan Ave.","60616","3.5",,"Near South Side","Multifamily Housing","85,800","2000","1",,"78","1,319,790.6","4,193,262.1",,,,"64.3","94.4","68.3","98.3","407.4","4.7","41.897438","-87.62602","POINT (-87.62602 41.897438)","2023-172541"
"2023","102331","Disney","Submitted","4140 N Marine Dr","60613","1.0",,"Uptown","K-12 School","260,140","1973","2",,"19","10,535,587.3","8,990,679.8",,,,"75.1","149.7","81.3","159","1,951.7","7.5","41.894991","-87.627829","POINT (-87.627829 41.894991)","2023-102331"
"2023","158842","Flanner Hall-ID# 158842","Submitted","1068 W Sheridan Rd","60626","1.0",,"Rogers Park","Mixed Use Property","64,407","1976","1","893",,"7,680,782.4","200",,,,"119.3","333.9","118.5","331.8","1,074.7","16.7","41.889859","-87.635118","POINT (-87.635118 41.889859)","2023-158842"
"2023","101883","Omni Hotel","Submitted","676 N Michigan Ave","60611","2.0",,"Near North Side","Hotel","440,281","1990","1","16,496","25","36,695,070.9","7,389,259.6",,,,"100.1","251","105.1","265","5,526.8","12.6","41.715446","-87.533007","POINT (-87.533007 41.715446)","2023-101883"
"2023","251992","United Airlines Reservation Center","Submitted","11555 W Touhy Ave","60666","3.0",,"Ohare","Office","122,360","1989","1",,"42","10,693,061.6","7,358,200",,,,"147.5","307.8","154.8","315.4","1,887","15.4","41.900826","-87.620706","POINT (-87.620706 41.900826)","2023-251992"
"2023","256709","Rosenwald Hall","Submitted","1101-11 East 58th Street","60637","3.5",,"Hyde Park","Office","64,380","1915","1",,"77","1,251,985.6",,"2,117,367.7","1,132,360.8",,"69.9","110","72.2","112.9","375.4","5.8","41.854411","-87.629992","POINT (-87.629992 41.854411)","2023-256709"
"2023","105484","Kenwin Venture LLLP","Submitted","5220-5224 N Kenmore","60640","2.5",,"Edgewater","Multifamily Housing","51,008","1929","1",,"59","1,721,423.3","879,949.6",,,,"51","112.6","55.6","124.5","287.6","5.6","41.794355","-87.770527","POINT (-87.770527 41.794355)","2023-105484"
"2023","106103","4180 Polo Tower CA","Submitted","4180 N. Marine Drive","60613","3.0",,"Uptown","Multifamily Housing","109,301","1951","1",,"48","2,800,564.6","9,003,707.1",,,,"108","158.2","117.8","168.6","870.1","8","41.954595","-87.730792","POINT (-87.730792 41.954595)","2023-106103"
"2023","113668","Michigan Building Corporation","Submitted","229 E Lake Shore Drive","60611","4.0",,"Near North Side","Multifamily Housing","93,360","1920","1",,"87","1,466,363.7","4,211,114.7",,,,"60.8","91.3","65.9","97.1","428.8","4.6","41.854449","-87.619807","POINT (-87.619807 41.854449)","2023-113668"
"2023","100867","Rush University Medical Center","Submitted","1653 W Congress Pkwy","60612","1.5",,"Near West Side","Hospital (General Medical & Surgical)","4,232,186","1982","19",,"36","452,705,206.7","342,969,449.8","237,668,083",,,"244.2","452.2","250.2","457.8","97,339.9","23","41.942187","-87.688396","POINT (-87.688396 41.942187)","2023-100867"
"2023","257067","Ogden Commons","Not Covered 2024","1325 S Washtenaw Ave","60608",,"true","North Lawndale",,,,,,,,,,,,,,,,,,"41.864072","-87.692979","POINT (-87.692979 41.864072)","2023-257067"
"2023","137212","Trevi SOuare Condominium Association","Submitted","1439 S Michigan","60605","4.0",,"Near South Side","Multifamily Housing","103,020","1920","1",,"96","1,524,470","3,817,848.6",,,,"51.9","80.3","59.5","88.4","416.1","4","41.903876","-87.625965","POINT (-87.625965 41.903876)","2023-137212"
"2023","119552","03344AS - Chicago, IL","Submitted","1220 S Ashland Ave","60608","4.0",,"Near West Side","Supermarket/Grocery Store","63,407","2002","1","3,329","67","7,633,206.7","5,340,899.9",,,,"204.6","425.5","213.8","434.2","1,351.7","21.3","41.988903","-87.655203","POINT (-87.655203 41.988903)","2023-119552"
"2023","219559","(IL631) - Jefferson Tower Condominium Association (200 N. Jefferson )","Submitted","200 N. Jefferson","60661","3.5",,"Near West Side","Multifamily Housing","227,255","2005","1",,"71","5,173,614.8","9,967,579.6",,,,"66.6","109.8","71.8","114.8","1,253.3","5.5","41.81573","-87.604653","POINT (-87.604653 41.81573)","2023-219559"
"2023","173598","The Chicago Theatre","Submitted","175 North State Street","60601","4.0",,"Loop","Performing Arts","700,000","1921","1",,,"2,654,814.4","2,707,398",,,,"7.7","14.7","9","16.2","515.3","0.7","41.881722","-87.637164","POINT (-87.637164 41.881722)","2023-173598"
"2023","115316","The Shore Manor","Submitted","5858 N Sheridan Rd.","60660","3.5",,"Edgewater","Multifamily Housing","66,418","1955","1",,"73","1,289,928.9","4,109,129.9",,,,"81.3","119.3","93.8","131.6","398.7","6","41.885084","-87.639667","POINT (-87.639667 41.885084)","2023-115316"
"2023","256566","Twelve01West","Submitted","176 N. Racine","60607","1.0",,"Near West Side","Office","148,560","2019","1","703","24","11,253,119.9","245,679.7",,,,"77.4","213.8","77.8","214.3","1,587.6","10.7","41.931407","-87.678687","POINT (-87.678687 41.931407)","2023-256566"
"2023","252020","1420 North Lake Shore Drive","Submitted","1420 North Lake Shore Drive","60611","4.0",,"Near North Side","Multifamily Housing","162,540","1928","1",,"88","3,022,149","7,900,600.6",,,,"67.2","103.1","73.4","108.9","842.5","5.2","41.874532","-87.63817","POINT (-87.63817 41.874532)","2023-252020"
"2023","254353","Kingsbury Center","Submitted","1415-1435 N Kingsbury","60642","4.0",,"Near North Side","Strip Mall","53,910","2012","1",,,"285,817.8","4,121,300.3",,,,"81.7","95.1","82.6","97.4","258.9","4.8","41.994228","-87.813808","POINT (-87.813808 41.994228)","2023-254353"
"2023","252315","6151 N Winthrop","Submitted","6151 N Winthrop Ave","60660","4.0",,"Edgewater","Multifamily Housing","86,520","1925","1",,"87","1,097,573.9","5,223,399.4",,,,"73.1","98.9","82.8","109.1","431","5","41.89787","-87.630381","POINT (-87.630381 41.89787)","2023-252315"
"2023","102337","Buena Shores","Submitted","833 W.Buena Avenue","60613","1.5",,"Uptown","Multifamily Housing","185,358","1970","1",,"40","3,850,977.7","16,155,399.8",,,,"107.9","149.7","116.7","158.5","1,373","7.4","41.963142","-87.836841","POINT (-87.836841 41.963142)","2023-102337"
"2023","253957","Silver Coast Citadel Condominium Association","Submitted","7201-09 S Yates Blvd.","60649","1.0",,"South Shore","Multifamily Housing","101,200","1926","1",,"15","995,900.4","9,135,196.6",,,,"100.1","122.3","111.5","134.7","624.6","6.2","41.886352","-87.632614","POINT (-87.632614 41.886352)","2023-253957"
"2023","159905","The Townhouse Apartments","Submitted","7022 S South Shore Drive","60649","1.5",,"South Shore","Multifamily Housing","130,590","1950","1",,"40","2,974,036.3","11,593,471.5",,,,"111.6","157","122.5","170.1","1,031.9","7.9","41.877486","-87.668521","POINT (-87.668521 41.877486)","2023-159905"
"2023","251754","Murray","Submitted","5335 S Kenwood Ave","60615","1.0",,"Hyde Park","K-12 School","73,984","1954","3",,"16","2,655,877","4,014,390.1",,,,"90.2","157.5","102","169.9","584.8","7.9","41.745263","-87.659812","POINT (-87.659812 41.745263)","2023-251754"
"2023","175888","(IL590) - Beacon Lofts (203 S. Sangamon)","Submitted","203 S. Sangamon","60607","4.0",,"Near West Side","Multifamily Housing","78,124","1997","1",,"89","911,157.7","2,549,814.8",,,,"44.3","66.9","49.5","72.1","262.9","3.4","41.925602","-87.646382","POINT (-87.646382 41.925602)","2023-175888"
"2023","101090","Spring Grove Apartments","Submitted","4554 S Drexel Blvd","60653","3.0",,"Kenwood","Multifamily Housing","89,084","1966","1",,"61","1,938,274.3","6,160,086.9",,,,"90.9","133.5","99.6","144.3","598.4","6.7","41.896918","-87.656686","POINT (-87.656686 41.896918)","2023-101090"
"2023","251431","Kanoon","Submitted","2233 S Kedzie Ave","60623","1.0",,"South Lawndale","K-12 School","67,900","1980","1",,"4","4,873,557.3",,,,,"71.8","201","77.6","217.3","681.9","10","41.881678","-87.646721","POINT (-87.646721 41.881678)","2023-251431"
"2023","251577","Stevenson ES","Submitted","8010 S Kostner Ave","60652","1.0",,"Ashburn","K-12 School","103,329","1953","4",,"28","3,350,512.4","4,278,629.9",,,,"73.8","134.3","81.5","144.2","696.1","6.7","41.78924","-87.599625","POINT (-87.599625 41.78924)","2023-251577"
"2023","160323","One Place Condominium Association","Submitted","1 East 8th Street","60605","2.0",,"Loop","Multifamily Housing","312,000","2008","1",,"24","6,970,188.2","15,527,391.6",,,,"72.1","114.8","77","120.7","1,800","5.8","41.916055","-87.721779","POINT (-87.721779 41.916055)","2023-160323"
"2023","175546",,"Not Submitted","2236 2296 N Lincoln Park West Ave","60614","0.0",,"Lincoln Park","Residential",,,,,,,,,,,,,,,,,"41.721769","-87.628728","POINT (-87.628728 41.721769)","2023-175546"
"2023","157919","North Park Village Apartments","Submitted","5801 N. Pulaski Rd., Bldg. H","60646","4.0",,"North Park","Residential Care Facility","275,000","1913","1",,,"10,986,277","7,294,867.5",,,,"66.5","139.7","66.5","139.7","1,924.7","7","41.864623","-87.624233","POINT (-87.624233 41.864623)","2023-157919"
"2023","254349","CA Condos on Adams","Submitted","1116 S. Adams St.","60607","1.5",,"Near West Side","Multifamily Housing","155,000","2015","1",,"38","4,086,969.8","2,566,846.8",,,,"42.9","91.2","45.9","95.8","708.2","4.6","41.818006","-87.611821","POINT (-87.611821 41.818006)","2023-254349"
"2023","257033","8727 W. BRYN MAWR CONDOMINIUM ASSOCIATION, INC.","Submitted","8727 W Bryn Mawr Ave","60631","4.0",,"O'Hare","Multifamily Housing","91,800","2004","1",,"97","1,226,357.4","4,168,197",,,,"58.8","85.1","64.9","90.8","393","4.3","41.900525","-87.642955","POINT (-87.642955 41.900525)","2023-257033"
"2023","252048","Levi Hall","Submitted","5801 S. Ellis Avenue","60637","3.0",,"Hyde Park","Office","90,125","1949","1","335","61","2,540,878.9","8,974","5,692,359.2","2,428,320.2",,"118.4","179.5","124.4","187.2","861.9","9.6","41.99364","-87.655351","POINT (-87.655351 41.99364)","2023-252048"
"2023","254158","5141 N Christiana Ave.","Submitted","5141 N Christiana Ave.","60625","1.0",,"North Park","College/University","101,000","2014","1",,,"5,882,603.7","5,549,389.7",,,,"113.2","220.8","119.9","225.2","1,117.8","11.1","41.924327","-87.653424","POINT (-87.653424 41.924327)","2023-254158"
"2023","101679","Presidents Plaza 1","Submitted","8600 West Bryn Mawr Ave","60631","4.0",,"Ohare","Office","417,395","1980","1",,"93","22,165,812.3","155,708.4",,,,"53.5","149.1","53.5","149.1","3,109.7","7.5","41.968904","-87.676283","POINT (-87.676283 41.968904)","2023-101679"
"2023","256536","61 E Banks","Submitted","61 E Banks","60610","3.5",,"Near North Side","Multifamily Housing","129,071","2019","1",,"52","4,186,480.4","3,576,430.8",,,,"60.1","119.9","65.5","129.3","775.7","6","41.890424","-87.623965","POINT (-87.623965 41.890424)","2023-256536"
"2023","173617","105 W Madison","Submitted","105 W Madison Street","60602","3.5",,"Loop","Office","140,000","1928","1",,"60","7,318,146.4","3,239,800.1",,,,"75.4","170.7","79","174.4","1,196","8.5","41.778635","-87.594755","POINT (-87.594755 41.778635)","2023-173617"
"2023","243578","(IL610) - 2400 Lakeview Condo (2400 N. Lakeview)","Submitted","2400 N. Lakeview","60614","1.5",,"Lincoln Park","Multifamily Housing","270,478","1963","1",,"38","6,590,789.3","19,244,682.9",,,,"95.5","142.9","104.2","151.3","1,944.4","7.2","41.886615","-87.618965","POINT (-87.618965 41.886615)","2023-243578"
"2023","172795","Best Western Grant Park Hotel","Not Submitted","1100  S Michigan Ave","60605","0.0",,"Loop","Residential",,,,,,,,,,,,,,,,,"41.878223","-87.634247","POINT (-87.634247 41.878223)","2023-172795"
"2023","244311","3750 N Lake Shore Drive","Submitted","3750 N Lake Shore Drive","60613","4.0",,"Lake View","Multifamily Housing","391,234","1926","1",,"89","4,683,930.6","20,156,593.8",,,,"63.5","87.6","70.1","94.4","1,726","4.4","41.855772","-87.733888","POINT (-87.733888 41.855772)","2023-244311"
"2023","251516","Burnham","Submitted","9928 S Crandon Ave","60617","2.0",,"South Deering","K-12 School","82,156","1945","4",,"41","1,103,246.3","5,700,300",,,,"82.8","110.5","99.6","128.1","457.1","5.6","41.900355","-87.643729","POINT (-87.643729 41.900355)","2023-251516"
"2023","112699","Sheridan Lakeside Condo Association","Submitted","6259 N. Sheridan","60654","4.0",,"Edgewater","Multifamily Housing","70,000","1923","1",,"92","1,499,495.8","1,006,198.2",,,,"35.8","75.1","39.1","83.5","263.3","3.8","41.899299","-87.625598","POINT (-87.625598 41.899299)","2023-112699"
"2023","233890","1464 S Michigan Condo Association","Submitted","1464 S. Michigan Avenue","60605","4.0",,"Near South Side","Multifamily Housing","263,772","2007","1",,"68","6,499,129.8","12,555,172.2",,,,"72.2","119","78","125.5","1,576.2","6","41.853301","-87.64993","POINT (-87.64993 41.853301)","2023-233890"
"2023","173835","1900 Lawrence (lw030)","Submitted","1900 W Lawrence Ave","60640","2.5",,"Lincoln Square","Multifamily Housing","100,000","2021","1","1,647","56","2,781,316.9","1,596,375.4",,,,"43.8","94.6","47.2","101.9","474","4.7","41.854721","-87.625688","POINT (-87.625688 41.854721)","2023-173835"
"2023","235008","The Deco (nl005)","Submitted","1400 N Lake Shore Dr.","60610","3.0",,"Near North Side","Multifamily Housing","327,300","1927","3","9,613","63","11,763,828.5","5,596,441.9",,,,"53","118.6","57.3","129.8","1,943.2","5.9","41.890705","-87.631611","POINT (-87.631611 41.890705)","2023-235008"
"2023","175872","Piper's Alley","Submitted","230 W. North Avenue","60610",,"true","Lincoln Park","Mixed Use Property","219,532","1977","1",,,"12,934,932.2","8,729,618.2",,,,"98.7","206.7","105.9","213.5","2,273.5","10.4","41.776479","-87.640929","POINT (-87.640929 41.776479)","2023-175872"
"2023","251298","Galter Life Center","Submitted","5157 N Francisco Ave","60625","1.0",,"Lincoln Square","Outpatient Rehabilitation/Physical Therapy","71,918","1991","1",,,"6,078,251.9","6,588,570.8",,,,"184.8","341.6","193.2","350.4","1,288.1","17.9","41.812375","-87.723608","POINT (-87.723608 41.812375)","2023-251298"
"2023","256745","Taft HS - Freshmen Academy","Submitted","4071 N Oak Park Avenue","60634","3.5",,"Dunning","K-12 School","135,000","2019","1",,"72","3,395,598.4","3,351,930",,,,"50","96.5","54.2","100.5","653.1","4.8","41.868269","-87.625695","POINT (-87.625695 41.868269)","2023-256745"
"2023","101798","Headquarters Q12380","Not Covered 2024","225 W Randolph","60606",,"true","Loop","Office",,,,,,,,,,,,,,,,,"41.909597","-87.626312","POINT (-87.626312 41.909597)","2023-101798"
"2023","140901","2800 North Orchard Condominium Association","Submitted","2800 N. Orchard St.","60657","2.0",,"Lake View","Multifamily Housing","96,262","1978","1",,,"1,804,461.5","4,593,402.2",,,,"66.5","102.6","73.1","109.2","496.5","5.2","41.832383","-87.610854","POINT (-87.610854 41.832383)","2023-140901"
"2023","101086",,"Not Submitted","1016  W Hollywood Ave","60660","0.0",,"Edgewater","Residential",,,,,,,,,,,,,,,,,"41.954112","-87.691318","POINT (-87.691318 41.954112)","2023-101086"
"2023","254024","Gateway West Loop (ga142)","Submitted","11 S Green St","60607","1.5",,"Near West Side","Multifamily Housing","133,879","2015","1","3,312","33","5,445,544.2","5,236,530.1",,,,"79.8","155","85.1","159.4","1,040.1","7.8","41.935694","-87.640426","POINT (-87.640426 41.935694)","2023-254024"
"2023","160412","Baumhart Hall-ID#160412","Submitted","26 E Pearson","60611","3.5",,"Near North Side","Residence Hall/Dormitory","246,327","2006","1","7,324","74","6,567,297","8,466,162.4",,,,"61","110.7","65.4","115","1,368.6","5.6","41.886835","-87.615332","POINT (-87.615332 41.886835)","2023-160412"
"2023","118351","Courthouse Place","Submitted","46-64 W. Hubbard St.","60654","2.5",,"Near North Side","Office","107,000","1910","1",,"53","6,901,718.8","458,200",,,,"68.8","185.1","74.5","199","990","9.3","41.972137","-87.668013","POINT (-87.668013 41.972137)","2023-118351"
"2023","251692","Nightingale","Submitted","5250 S Rockwell St","60632","1.0",,"Gage Park","K-12 School","140,838","1926","5",,"10","5,620,440.6","8,366,010.2",,,,"99.3","174.1","111.4","187.8","1,230.8","8.7","41.848097","-87.680781","POINT (-87.680781 41.848097)","2023-251692"
"2023","171878","Josephinum Academy","Not Submitted","1501 N Oakley Blvd","60622","0.0",,"West Town","K-12 School",,,,,,,,,,,,,,,,,"41.805163","-87.586648","POINT (-87.586648 41.805163)","2023-171878"
"2023","228537","201 East Chestnut Condominium Association","Submitted","201 E. Chestnut","60611","1.0",,"Near North Side","Multifamily Housing","201,460","1966","1",,"16","8,379,008.4","4,721,857.6",,,,"65","141.1","73.2","155.9","1,371.1","6.8","41.761857","-87.605333","POINT (-87.605333 41.761857)","2023-228537"
"2023","251591","Chopin","Submitted","2450 W Rice St","60622","1.5",,"West Town","K-12 School","96,895","1917","1",,"33","1,662,725.6","7,296,239.9",,,,"92.5","127.1","109.4","144.9","620.2","6.4","41.899141","-87.621393","POINT (-87.621393 41.899141)","2023-251591"
"2023","236382","Randolph Place Residences Condominium Association","Submitted","165 N Canal Street","60606","4.0",,"Near West Side","Multifamily Housing","749,100","1922","1",,"98","10,214,430.8","22,340,484.2",,,,"43.5","69.5","48.9","74.9","2,615.8","3.5","41.904275","-87.634642","POINT (-87.634642 41.904275)","2023-236382"
"2023","103651","425 South Financial","Submitted","425 South Financial Place (440 South Lasalle)","60605","2.5",,"Loop","Office","1,237,300","1984","1","18,296","56","76,396,345.4","109,295.8",,,,"61.8","173","63.1","176.4","10,695.2","8.6","41.902212","-87.748845","POINT (-87.748845 41.902212)","2023-103651"
"2023","102825",,"Not Submitted","4510 4518 N Ashland Ave","60640","0.0",,"Uptown","Residential",,,,,,,,,,,,,,,,,"41.787886","-87.598884","POINT (-87.598884 41.787886)","2023-102825"
"2023","250161","Northwest Armory","Submitted","1551 North Kedzie","60651","3.0",,"West Town","Other","204,256","1940","1",,,"4,223,628.2","8,177,879.3",,,,"60.7","99.9","67","106.6","1,025.3","5","41.896316","-87.640191","POINT (-87.640191 41.896316)","2023-250161"
"2023","158406","65 E Wacker Place","Submitted","65 E Wacker Place","60601","3.5",,"Loop","Office","249,062","1928","1","1,464","79","4,315,111.4","8,019,320.2",,"4,355,460",,"67","98.2","72.7","104.3","1,259.2","5.1","41.969187","-87.655734","POINT (-87.655734 41.969187)","2023-158406"
"2023","108602","C/S Lathrop Limited Partnership","Submitted","2717 N Leavitt St","60647","2.5",,"Lincoln Park","Multifamily Housing","70,732","1990","1",,"55","1,349,656.6","4,765,616",,,,"86.5","124.2","94.8","132.7","442","6.2","41.882402","-87.761285","POINT (-87.761285 41.882402)","2023-108602"
"2023","241042","100 E Walton St","Submitted","100 E Walton St","60611","3.5",,"Near North Side","Mixed Use Property","367,703","1971","1",,"51","10,478,877.4","24,740,753.7",,,,"95.8","150.4","103.9","158.4","2,780.3","7.6","41.863514","-87.625594","POINT (-87.625594 41.863514)","2023-241042"
"2023","256783","5252","Submitted","5252 S Cornell Ave","60615","4.0",,"Hyde Park","Multifamily Housing","337,624","2020","1",,,"7,216,939.8","5,590,499.9",,,,"37.9","77.2","41.5","82.8","1,306.7","3.9","41.983365","-87.65675","POINT (-87.65675 41.983365)","2023-256783"
"2023","256900","320 N Sangamon","Submitted","320 North Sangamon","60607","4.0",,"Near West Side","Office","309,985","2021","1","3,440","91","6,550,188.7","6,663,855.2",,,,"42.6","81.7","45.4","85.3","1,270.4","4.1","41.881329","-87.66805","POINT (-87.66805 41.881329)","2023-256900"
"2023","250057","ENGLEWOOD HEALTH CENTER","Submitted","641 W. 63rd St.","60621","1.0",,"Englewood","Outpatient Rehabilitation/Physical Therapy","54,189","1972","1",,,"2,423,304","3,275,117.2",,,,"105.2","188.7","114.2","198.6","513","9.5","41.857352","-87.623774","POINT (-87.623774 41.857352)","2023-250057"
"2023","171956",,"Not Covered 2024","465 W Cermak Rd","60616",,"true","Armour Square","Commercial",,,,,,,,,,,,,,,,,"41.852179","-87.639897","POINT (-87.639897 41.852179)","2023-171956"
"2023","101813","150 North Michigan","Submitted","150 North Michigan Avenue","60601","3.5",,"Loop","Office","708,981","1984","1",,"75","29,044,493.7","9,768.4",,,,"41","114.7","44.3","124","4,064.4","5.7","41.798029","-87.602463","POINT (-87.602463 41.798029)","2023-101813"
"2023","251515","Calhoun North -CPS","Not Covered 2024","2801 W Adams","60612",,"true","East Garfield Park","K-12 School",,,,,,,,,,,,,,,,,"41.879115","-87.632137","POINT (-87.632137 41.879115)","2023-251515"
"2023","103664","Northern Trust HeadOuarters","Submitted","50 S. Lasalle","60603","4.0",,"Loop","Financial Office","584,000","1963","1","3,258","74","21,253,850.4","16,626,013.8",,,,"64.9","131.8","70.1","137.1","3,856.9","6.6","41.939776","-87.638654","POINT (-87.638654 41.939776)","2023-103664"
"2023","256424","Stuart Building","Not Submitted","10 W 31st Street","60616","0.0",,"Douglas","Commercial",,,,,,,,,,,,,,,,,"41.744881","-87.550187","POINT (-87.550187 41.744881)","2023-256424"
"2023","256409","8793","Submitted","310 E Superior St","60611","1.0",,"Near North Side","College/University","61,179","1955","1",,,"3,997,519.4","8,307,039.6",,,,"201.1","325.5","207.6","332.4","1,000.6","16.4","41.905215","-87.63017","POINT (-87.63017 41.905215)","2023-256409"
"2023","257113",,"Not Covered 2024","210 N Aberdeen St","60607",,"true","Near West Side","Residential",,,,,,,,,,,,,,,,,"41.886001","-87.654853","POINT (-87.654853 41.886001)","2023-257113"
"2023","105673","Holiday Inn Downtown Chicago","Submitted","506 W Harrison St.","60607","1.5",,"Near West Side","Hotel","74,314","1967","1",,"40","4,001,067.9","5,419,875.8",,,,"126.8","227.3","139.1","240.3","847.7","11.4","42.005618","-87.660786","POINT (-87.660786 42.005618)","2023-105673"
"2023","103594","NBC Tower","Submitted","455 North Cityfront Plaza Drive","60611","2.5",,"Near North Side","Office","939,350","1988","1","10,629","58","78,614,632.1",,,,,"83.7","234.3","86.9","243.2","10,999.7","11.7","41.838406","-87.627155","POINT (-87.627155 41.838406)","2023-103594"
"2023","250047","Julian HS -CPS","Not Covered 2024","10330 S Elizabeth St","60643",,"true","Washington Heights","K-12 School",,,,,,,,,,,,,,,,,"41.889284","-87.626549","POINT (-87.626549 41.889284)","2023-250047"
"2023","160130","One11 West Illinois","Submitted","111 W. Illinois St.","60654","2.5",,"Near North Side","Office","242,035","2008","1","4,157","58","14,187,993.2","680,113.9",,,,"61.4","167.1","64.1","174.6","2,021.3","8.4","41.911706","-87.734873","POINT (-87.734873 41.911706)","2023-160130"
"2023","106101","Wrightwood II LLC","Submitted","443 W Wrightwood Ave","60614","3.5",,"Lincoln Park","Multifamily Housing","90,140","1928","1",,"74","1,507,973.7","7,110,282.8",,,,"95.6","129.7","104.8","138.9","588.7","6.5","41.920371","-87.648441","POINT (-87.648441 41.920371)","2023-106101"
"2023","251636","Gresham Elementary -CPS","Not Covered 2024","8524 S Green St","60620",,"true","Auburn Gresham","K-12 School",,,,,,,,,,,,,,,,,"41.738835","-87.645216","POINT (-87.645216 41.738835)","2023-251636"
"2023","174209","Superior at LaSalle","Submitted","150 W Superior St.","60654","1.5",,"Near North Side","Multifamily Housing","92,450","2006","1",,"38","3,170,758.1","4,492,146.1",,,,"82.9","147.1","100.9","166","682.3","7.4","41.942543","-87.813168","POINT (-87.813168 41.942543)","2023-174209"
"2023","125013",,"Not Submitted","122 160 W 79th St","60620","0.0",,"Greater Grand Crossing","Commercial",,,,,,,,,,,,,,,,,"41.876621","-87.648514","POINT (-87.648514 41.876621)","2023-125013"
"2023","256527","Hilton Garden Inn","Not Submitted","55 E 11th St","60605","0.0",,"Loop",,,,,,,,,,,,,,,,,,"41.797522","-87.705043","POINT (-87.705043 41.797522)","2023-256527"
"2023","173642","230 East Ohio","Submitted","230 East Ohio Street","60611","2.0",,"Near North Side","Office","71,298","1917","1",,"48","2,397,136.4","2,996,228",,,,"75.6","138.3","75.6","138.3","494.6","6.9","41.841984","-87.617054","POINT (-87.617054 41.841984)","2023-173642"
"2023","105233","Loyola Beach Apartments","Not Submitted","7064  N Sheridan Rd","60626","0.0",,"Rogers Park","Residential",,,,,,,,,,,,,,,,,"41.90845","-87.626068","POINT (-87.626068 41.90845)","2023-105233"
"2023","175867","Six Corners Plaza","Not Submitted","3970 - 3982 N Milwaukee Ave","60641","0.0",,"Portage Park","Strip Mall",,,,,,,,,,,,,,,,,"41.754654","-87.557185","POINT (-87.557185 41.754654)","2023-175867"
"2023","251700","Haugan","Submitted","4540 N Hamlin Ave","60625","2.0",,"Albany Park","K-12 School","137,971","1911","2",,"47","2,302,117.4","8,592,220.3",,,,"79","112.1","95.4","129.3","778.5","5.6","41.898489","-87.624553","POINT (-87.624553 41.898489)","2023-251700"
"2023","101978",,"Not Submitted","42 46 N Waller Ave","60644","0.0",,"Austin","Residential",,,,,,,,,,,,,,,,,"41.84298","-87.631951","POINT (-87.631951 41.84298)","2023-101978"
"2023","251274",,"Not Submitted","320 322 W Oakdale Ave","60657","0.0",,"Lake View","Residential",,,,,,,,,,,,,,,,,"41.880679","-87.624491","POINT (-87.624491 41.880679)","2023-251274"
"2023","160134","Charles A Beckett Associates, LP","Not Submitted","400 E 41st St","60653","0.0",,"Grand Boulevard","MultifamilyÂ Housing",,,,,,,,,,,,,,,,,"41.893479","-87.622218","POINT (-87.622218 41.893479)","2023-160134"
"2023","119349","Pete's Pulaski","Submitted","4343 S. Pulaski","60632","1.0",,"Archer Heights","Supermarket/Grocery Store","56,000","2003","0",,"22","10,552,361.2","8,663,207",,,,"343.1","690.1","357.1","707","1,936.6","34.6","41.830838","-87.614625","POINT (-87.614625 41.830838)","2023-119349"
"2023","251222","2229 South Halsted","Submitted","2229 South Halsted Street","60608","3.5",,"Lower West Side","Office","85,007","1908","1",,"59","3,911,712.4","349.9",,,,"46","128.9","47.8","133.8","547.3","6.4","41.879224","-87.653584","POINT (-87.653584 41.879224)","2023-251222"
"2023","254996","Fletcher Jones Chicago Service (Audi)","Not Submitted","1521 W North Ave","60642","0.0",,"West Town",,,,,,,,,,,,,,,,,,"41.850973","-87.627189","POINT (-87.627189 41.850973)","2023-254996"
"2023","100631","Hubbard HS","Submitted","6200 S Hamlin Ave","60629","2.0",,"West Lawn","K-12 School","218,200","1929","3",,"45","3,733,673.3","16,435,879.5",,,,"92.4","127","106.1","141.4","1,395.4","6.4","41.927322","-87.652506","POINT (-87.652506 41.927322)","2023-100631"
"2023","251463","Lincoln","Submitted","615 W Kemper Pl","60614","3.0",,"Lincoln Park","K-12 School","115,536","1894","3",,"66","2,089,232.4","3,722,980",,,,"50.3","84.5","58.3","92.8","490.1","4.2","41.992473","-87.655312","POINT (-87.655312 41.992473)","2023-251463"
"2023","238367","1300 Lake Shore Drive Condominium Association","Submitted","1300 N Lake Shore Dr","60610","2.0",,"Near North Side","Multifamily Housing","365,977","1963","1",,"42","10,099,019.8","19,334,971.5",,,,"80.4","132.7","86.5","138.1","2,440","6.7","41.941082","-87.640196","POINT (-87.640196 41.941082)","2023-238367"
"2023","112724","6119 6125 N Winchester","Submitted","6119-6125 N Winchester Ave","60660","2.0",,"West Ridge","Multifamily Housing","57,600","1951","1",,"25","1,218,315.2","5,366,400",,,,"114.3","157","131.2","175.3","455.5","7.9","41.803192","-87.611959","POINT (-87.611959 41.803192)","2023-112724"
"2023","251286","101 Grand","Submitted","101 W. Grand Ave.","60654","1.5",,"Near North Side","Office","61,971","1872","1",,"38","1,985,534.9","5,975,299.9",,,,"128.5","191","132.6","196.8","595.2","9.6","41.918672","-87.666625","POINT (-87.666625 41.918672)","2023-251286"
"2023","252323","Paul G. Stewart Apartments Phase III","Not Submitted","401 E Bowen Ave","60653","0.0",,"Grand Boulevard","Residential",,,,,,,,,,,,,,,,,"41.821377","-87.606395","POINT (-87.606395 41.821377)","2023-252323"
"2023","232398","(IL1050) - The Carlyle Apartments Condo (1040 N Lake Shore Dr )","Submitted","1040 N Lake Shore Dr","60611","3.0",,"Near North Side","Multifamily Housing","502,995","1964","1",,"68","16,129,420.3","6,169,953.8",,,,"44.3","102.7","47.9","111.3","2,584.5","5.1","41.890382","-87.634185","POINT (-87.634185 41.890382)","2023-232398"
"2023","101736","71 South Wacker","Submitted","71 S. Wacker Drive","60606","4.0",,"Loop","Office","1,684,534","2005","1",,"88","68,805,585.3","533,177.8",,,,"41.2","114.7","44.8","125","9,655.6","5.7","41.923922","-87.657347","POINT (-87.657347 41.923922)","2023-101736"
"2023","257087",,"Not Covered 2024","3431 N Ashland Ave","60657",,"true","Lake View","Commercial",,,,,,,,,,,,,,,,,"41.944394","-87.668408","POINT (-87.668408 41.944394)","2023-257087"
"2023","114252","607 Wrightwood Condominium Association","Submitted","607 W. Wrightwood Ave.","60614","3.0",,"Lincoln Park","Multifamily Housing","72,000","1974","1",,"63","1,612,264.6","4,865,292.1",,,,"90","133.7","97.7","141.3","484","6.7","41.888166","-87.639815","POINT (-87.639815 41.888166)","2023-114252"
"2023","160395","Aztec Condominium","Not Submitted","305 W Fullerton Pkwy","60614","0.0",,"Lincoln Park","Commercial",,,,,,,,,,,,,,,,,"41.909996","-87.627476","POINT (-87.627476 41.909996)","2023-160395"
"2023","256457","Lathrop - S101","Submitted","2737 N Hoyne Avenue","60647","1.0",,"Lincoln Park","Multifamily Housing","69,874","2019","1","3,444","13","3,011,460.2","2,824,796",,,,"83.5","163.1","88.1","168","571.4","8.2","41.884646","-87.617248","POINT (-87.617248 41.884646)","2023-256457"
"2023","107970","Taylor Park","Submitted","41 W 47th St","60609","4.0",,"Grand Boulevard","Other","150,000","1964","1",,,"943,393.9","2,712,699.9",,,,"24.4","36.6","27.5","39.8","276.1","1.8","41.964402","-87.654923","POINT (-87.654923 41.964402)","2023-107970"
"2023","103677","150 North Riverside Plaza","Submitted","150 N. Riverside Plaza","60606","4.0",,"Near West Side","Office","1,487,050","2017","1",,"68","63,680,212.9","1,611,198.7",,"29,192,878.4",,"63.5","138.9","65.5","146.4","10,534.2","7.1","41.921225","-87.637998","POINT (-87.637998 41.921225)","2023-103677"
"2023","175521","Harper Center Apartments","Not Submitted","5460 5470 S Harper Ave","60615","0.0",,"Hyde Park","Residential",,,,,,,,,,,,,,,,,"41.960687","-87.650027","POINT (-87.650027 41.960687)","2023-175521"
"2023","251680","Bond","Submitted","7050 S May St","60621","2.5",,"Englewood","K-12 School","104,126","1926","2",,"51","1,722,050","5,969,990.2",,,,"73.9","106.5","83.6","116.6","558","5.4","41.879087","-87.648507","POINT (-87.648507 41.879087)","2023-251680"
"2023","250034","Broadway Armory","Not Submitted","5917 N Broadway Ave","60660","0.0",,"Edgewater","Other - Recreation",,,,,,,,,,,,,,,,,"41.926893","-87.639311","POINT (-87.639311 41.926893)","2023-250034"
"2023","174204","The Morgan at Loyola Station (tg80)","Submitted","1209 W Arthur Ave","60626","2.0",,"Rogers Park","Multifamily Housing","160,008","2009","2","8,880","43","4,833,166.2","5,465,612.4",,,,"64.4","120.4","69.3","125.6","966.6","6","41.909399","-87.653051","POINT (-87.653051 41.909399)","2023-174204"
"2023","103656","theMART, Chicago","Submitted","222 Merchandise Mart Plaza","60654",,"true","Near North Side","Office","4,131,093","1930","1","18,132",,"92,238,712","73,046,757.1",,"35,019,072.2",,"48.5","88.8","51.9","92.5","18,631.4","4.5","41.883748","-87.636662","POINT (-87.636662 41.883748)","2023-103656"
"2023","175431","5123-5135 S. University Ave.","Submitted","5123-5135 S. University Ave.","60615","3.5",,"Hyde Park","Multifamily Housing","58,358","1924","1",,"73","371,886.9","2,957,752.6",,,,"57.1","71.1","63","77.4","209.1","3.6","41.899255","-87.627835","POINT (-87.627835 41.899255)","2023-175431"
"2023","102408","Mundelein Center- ID#102408","Submitted","1020 W Sheridan Rd","60626","2.0",,"Rogers Park","College/University","206,160","1930","1","6,085",,"8,232,234.6","11,854,560.1",,,,"97.4","172.2","109.6","185","1,781.5","8.6","41.754884","-87.732222","POINT (-87.732222 41.754884)","2023-102408"
"2023","229057","Park View Towers Condominium Association","Submitted","2740 N Pine Grove Ave","60614","1.0",,"Lincoln Park","Multifamily Housing","86,222","1975","1",,"12","5,530,044.5","1,684,076.2",,,,"83.7","200.1","93.8","220.9","863.2","10","41.86604","-87.726724","POINT (-87.726724 41.86604)","2023-229057"
"2023","251244","3520 Lake Shore Drive Condominium Association","Submitted","3520 N. Lake Shore Drive","60657","4.0",,"Lake View","Multifamily Housing","267,464","1924","1",,"90","2,702,415.2","12,905,212.7",,,,"58.4","79","64.9","85.6","1,063.6","4","41.884751","-87.615604","POINT (-87.615604 41.884751)","2023-251244"
"2023","250088","Harry J. Schneider Apartments","Submitted","1750 W. Peterson Ave","60660","2.5",,"Edgewater","Multifamily Housing","111,293","1977","1",,"60","2,313,512.5","8,100,800.1",,,,"93.6","134.6","104","145.4","754","6.8","41.959691","-87.649999","POINT (-87.649999 41.959691)","2023-250088"
"2023","160448","606 E Woodland Park Avenue","Submitted","606 E Woodland Park Avenue","60612","3.0",,"Douglas","Multifamily Housing","101,941","1989","1",,"67","4,188,331.3","6,185,138.5",,,,"101.8","178.7","113.2","191.6","888.5","8.7","41.906671","-87.696825","POINT (-87.696825 41.906671)","2023-160448"
"2023","251738","Hirsch Metropolitan HS -CPS","Not Covered 2024","7740 S Ingleside Ave","60619",,"true","Greater Grand Crossing","K-12 School",,,,,,,,,,,,,,,,,"41.87052","-87.626054","POINT (-87.626054 41.87052)","2023-251738"
"2023","251545","Metcalfe Math And Science -CPS","Not Covered 2024","12339 S Normal Ave","60628",,"true","West Pullman","K-12 School",,,,,,,,,,,,,,,,,"41.875033","-87.668753","POINT (-87.668753 41.875033)","2023-251545"
"2023","174206","The Ambassador Condominium Homeowners Association","Submitted","1300 N State Parkway","60610","2.5",,"Near North Side","Multifamily Housing","148,466","2004","1",,"54","4,056,643.4","5,812,720",,,,"66.5","117.6","72.4","124.3","876.3","5.9","41.884016","-87.684725","POINT (-87.684725 41.884016)","2023-174206"
"2023","155614","3447-3457 W Foster Avenue","Submitted","3447-3457 W Foster Avenue","60625","0.0",,"North Park","Multifamily Housing","52,200","1927","1",,"72","557,351.2","2,903,272.4",,,,"66.3","88.3","75.9","98","228.7","4.38","41.757815","-87.585569","POINT (-87.585569 41.757815)","2023-155614"
"2023","159100","1111 N. Dearborn Apartments","Submitted","1111 N. Dearborn","60610","3.0",,"Near North Side","Multifamily Housing","330,974","1986","1",,"61","6,660,976.2","20,533,131.7",,,,"82.2","121.5","88.5","127.4","2,022.6","6.1","41.958301","-87.67059","POINT (-87.67059 41.958301)","2023-159100"
"2023","164460","CICS Northtown","Submitted","3900 W. Peterson Ave.","60659","2.5",,"North Park","K-12 School","124,443","1964","1",,"55","1,940,725.1","7,451,300.2",,,,"75.5","106.5","90","121.7","667.3","5.4","41.866806","-87.661692","POINT (-87.661692 41.866806)","2023-164460"
"2023","250098","Lincoln Perry Apartments","Submitted","3245 S. Prairie Ave","60616","4.0",,"Douglas","Multifamily Housing","312,210","1973","2",,"94","5,368,183.4","12,047,400.2",,,,"55.8","88.7","61","94.5","1,391","4.5","41.924907","-87.638234","POINT (-87.638234 41.924907)","2023-250098"
"2023","105315","468 West Melrose Street","Submitted","468 W Melrose St","60657","4.0",,"Lake View","Multifamily Housing","55,460","1961","1",,"85","729,408","3,335,814",,,,"73.3","100","82.3","109.2","279.2","5","41.965273","-87.654636","POINT (-87.654636 41.965273)","2023-105315"
"2023","251242","330 N Clinton Condo Assoc","Submitted","330 N Clinton St","60606","4.0",,"Near West Side","Multifamily Housing","63,803","2000","1",,"91","1,201,951.4","2,437,673.4",,,,"57","92.9","62.5","98.2","297.7","4.7","41.956676","-87.786749","POINT (-87.786749 41.956676)","2023-251242"
"2023","256247","63029-Sunrise of Lincoln Park","Submitted","2710 North Clark St","60614","3.0",,"Lincoln Park","Senior Living Community","50,000","2003","1","1,940","44","2,858,409.9","3,232,400.2",,,,"121.8","228","130.8","237.4","571.6","11.4","41.894229","-87.625385","POINT (-87.625385 41.894229)","2023-256247"
"2023","103696","111 South Wacker","Submitted","111 South Wacker","60606","3.5",,"Loop","Office","1,248,730","2004","1","14,952","72","70,803,779.1",,,,,"56.7","158.8","56.7","158.8","9,906.8","7.9","41.930448","-87.639442","POINT (-87.639442 41.930448)","2023-103696"
"2023","250171","The Heritage at Millennium Park","Submitted","130 North Garland Court","60602","1.5",,"Loop","Multifamily Housing","933,106","2005","1",,"32","43,677,613.5","13,415,790.7",,,,"61.2","146.2","66.7","158.9","6,823.9","7.3","41.89853","-87.621777","POINT (-87.621777 41.89853)","2023-250171"
"2023","257094",,"Not Covered 2024","503 E Pershing Rd","60653",,"true","Grand Boulevard",,,,,,,,,,,,,,,,,,"41.823669","-87.614209","POINT (-87.614209 41.823669)","2023-257094"
"2023","175441","Instituto Health Sciences Career Academy","Not Submitted","2520 S Western Ave","60608","0.0",,"Lower West Side","K-12 School",,,,,,,,,,,,,,,,,"41.768961","-87.566671","POINT (-87.566671 41.768961)","2023-175441"
"2023","147685","The 30 West Erie CA","Submitted","30 W. Erie Street","60654","3.5",,"Near North Side","Multifamily Housing","58,442","2006","1",,"54","1,920,031.2","2,355,008.8",,,,"73.2","134.3","83.9","150.8","393.7","6.7","41.883328","-87.62869","POINT (-87.62869 41.883328)","2023-147685"
"2023","251539","Sayre","Submitted","1850 N Newland Ave","60707","2.5",,"Austin","K-12 School","79,775","1930","1",,"60","1,320,222.2","3,931,720.1",,,,"65.8","98.1","77.1","109.9","393.6","4.9","41.88164","-87.64911","POINT (-87.64911 41.88164)","2023-251539"
"2023","242629","Hollywood Towers Condo Association","Submitted","5701 North Sheridan Rd.","60660","1.0",,"Edgewater","Multifamily Housing","562,000","1962","1",,"28","12,293,569.1","41,534,944.2",,,,"95.8","138.8","109.2","151.8","3,926.2","7","41.804248","-87.586242","POINT (-87.586242 41.804248)","2023-242629"
"2023","252018","5000 Marine Drive Corporation","Submitted","5000 N. Marine Dr.","60640","4.0",,"Uptown","Multifamily Housing","152,400","1923","1",,"87","1,239,608.3","8,429,821.2",,,,"63.4","80.9","71.1","89","621.2","4.1","41.862273","-87.692703","POINT (-87.692703 41.862273)","2023-252018"
"2023","255943","Wicker Park Connection - 1640 W Division","Submitted","1640 W Division","60622","4.0",,"West Town","Multifamily Housing","147,696","2018","1",,"84","5,238,245.3","169,905.6",,,,"36.6","100.5","36.6","100.5","742","5","41.892432","-87.673705","POINT (-87.673705 41.892432)","2023-255943"
"2023","254174","Workshop 4200","Submitted","4200 W Diversey","60639","2.0",,"Hermosa","Other","141,071","1941","1","394",,"3,983,001.8","6,095,156.2",,,,"71.4","124.4","80.1","133.5","881","6.2","41.979135","-87.65491","POINT (-87.65491 41.979135)","2023-254174"
"2023","175580","7200SSDR","Submitted","7200-10 South Shore Drive","60649","3.5",,"South Shore","Multifamily Housing","77,607","1915","1",,"73","600,274.9","4,153,043.1",,,,"61.2","77.8","67.5","84.6","304.6","3.9","41.878234","-87.696336","POINT (-87.696336 41.878234)","2023-175580"
"2023","242901","Alcott and Bryant","Submitted","1455-1460 North Sandburg","60610","3.5",,"Near North Side","Multifamily Housing","779,012","1962","2",,"72","11,387,464.5","40,175,374.1",,,,"66.2","95.1","73","102.6","3,727.2","4.8","41.885213","-87.646996","POINT (-87.646996 41.885213)","2023-242901"
"2023","251488","Esmond","Submitted","1865 W Montvale Ave","60643","2.5",,"Morgan Park","K-12 School","53,700","1891","3",,"38","908,254","4,162,539.7",,,,"94.4","128.7","106.4","141.5","348.2","6.5","41.935465","-87.641022","POINT (-87.641022 41.935465)","2023-251488"
"2023","159123","(IL500) - 1516 N State Pkwy Condo (1516 N. State Pkwy.)","Submitted","1516 N. State Pkwy.","60610","3.5",,"Near North Side","Multifamily Housing","104,800","1972","1",,"76","2,616,988.5","4,393,844.9",,,,"66.9","113.9","67.6","115.9","599.5","5.7","41.855499","-87.618953","POINT (-87.618953 41.855499)","2023-159123"
"2023","257186","Uptown Preservation Apartments","Submitted","4431 N. Clifton","60640","3.5",,"Uptown","Multifamily Housing","70,000","1912","3","5,630","79","910,529.3","4,711,594.7",,,,"80.3","107.1","87.8","115","377.7","5.4","41.962822","-87.657992","POINT (-87.657992 41.962822)","2023-257186"
"2023","251272","Walmart Supercenter #5781","Not Submitted","8331 S Stewart Ave","60620","0.0",,"Chatham","Wholesale Club/Supercenter",,,,,,,,,,,,,,,,,"41.868203","-87.717074","POINT (-87.717074 41.868203)","2023-251272"
"2023","102926","5736-52 South Stony Island LLC","Submitted","5736-52 S Stony Island Ave","60637","0.0",,"Hyde Park","Multifamily Housing","59,558","1920","1",,"63","484,936.9","3,679,646.3",,,,"96","120.3",,,"260.3","6","41.962983","-87.717943","POINT (-87.717943 41.962983)","2023-102926"
"2023","159936","7130 Cyril Court Apartments","Submitted","7130 S. Cyril Ct.","60649","2.0",,"South Shore","Multifamily Housing","81,140","1929","1",,"44","1,155,139.6","7,071,820.6",,,,"101.4","131.4","111.7","142","537.2","6.6","41.989157","-87.658333","POINT (-87.658333 41.989157)","2023-159936"
"2023","250107","Major Robert H Lawrence Apartments","Submitted","655 W 65th Street","60621","3.0",,"Englewood","Multifamily Housing","114,449","1967","1",,"66","2,869,294.7","6,685,600",,,,"83.5","131.5","90.2","139.2","756.6","6.6","41.752107","-87.600503","POINT (-87.600503 41.752107)","2023-250107"
"2023","166547","School_HolyAngelsSchoolAnnex","Submitted","750 E. 40th St.","60653","4.0",,"Grand Boulevard","K-12 School","105,351","1950","1",,"96","711,043.5","3,142,100.2",,,,"36.6","50.2","44.1","59.2","266.4","2.5","41.891516","-87.631197","POINT (-87.631197 41.891516)","2023-166547"
"2023","134790","The Loftrium","Submitted","819 S Wabash Ave","60605","2.5",,"Loop","Office","95,800","1912","1",,"58","6,289,049.7",,,,,"65.6","183.8","68","190.4","880","9.2","41.900802","-87.624272","POINT (-87.624272 41.900802)","2023-134790"
"2023","105697","Dearborn Plaza","Submitted","1030 N Dearborn St","60610","4.0",,"Near North Side","Multifamily Housing","79,152","1929","1",,"89","1,396,335.4","6,896,900.5",,,,"104.8","140.9","117","153.3","561.7","7.1","41.903296","-87.628367","POINT (-87.628367 41.903296)","2023-105697"
"2023","250022","Fosco Park","Not Submitted","1312 S Racine Ave","60608","0.0",,"Near West Side","Other - Recreation",,,,,,,,,,,,,,,,,"41.887585","-87.645654","POINT (-87.645654 41.887585)","2023-250022"
"2023","254046","Ainslie Park Condominium Association","Submitted","840-846 W. Ainslie St.","60640","3.5",,"Uptown","Multifamily Housing","52,760","1923","1",,"76","1,725,517.4","1,263,621.6",,,,"56.7","116.7","61.6","129.2","308.6","5.8","41.893251","-87.622792","POINT (-87.622792 41.893251)","2023-254046"
"2023","159999","Lake Terrace Condominium Association","Submitted","7337 S. South Shore","60649","2.0",,"South Shore","Multifamily Housing","273,143","1958","1",,"46","5,276,042.6","23,643,761",,,,"105.9","145","117.2","158.6","1,994.1","7.3","41.749348","-87.721097","POINT (-87.721097 41.749348)","2023-159999"
"2023","242148","(IL337) - Museum Park Place South (1841 S Calumet Ave)","Submitted","1841 S Calumet Ave","60616","4.0",,"Near South Side","Multifamily Housing","301,111","2006","1",,"66","8,474,478.7","13,834,193.9",,,,"74.1","127","80.8","137","1,920.5","6.4","41.751536","-87.591709","POINT (-87.591709 41.751536)","2023-242148"
"2023","256961",,"Not Submitted","1201 N Clark","60610","0.0",,"Near North Side","Residential",,,,,,,,,,,,,,,,,"41.891983","-87.63274","POINT (-87.63274 41.891983)","2023-256961"
"2023","254166","Crown Center-ID#254166","Submitted","1001-25 W Loyola Ave","60626","3.0",,"Rogers Park","College/University","81,740","1984","1","640",,"3,091,975.3","2,563,315.7",,,,"69.2","138.8","74.9","142.7","568.8","7","41.860544","-87.622539","POINT (-87.622539 41.860544)","2023-254166"
"2023","254567","Moment","Submitted","545 N. Mcclurg Ct.","60611","2.0",,"Near North Side","Multifamily Housing","541,280","2017","1","18,201","50","22,088,170.9","11,063,871",,,,"61.2","135.7","65.7","144.5","3,678.2","6.8","41.707391","-87.603078","POINT (-87.603078 41.707391)","2023-254567"
"2023","256804",,"Not Submitted","810 W Wayman St","60607","0.0",,"Near West Side",,,,,,,,,,,,,,,,,,"41.894798","-87.615867","POINT (-87.615867 41.894798)","2023-256804"
"2023","173874","The Denifer","Submitted","5400 N. Kenmore","60640","4.0",,"Edgewater","Multifamily Housing","81,600","1990","1",,"82","823,817.2","4,567,599.9",,,,"66.1","87","73.5","94.9","357.9","4.4","41.702647","-87.564183","POINT (-87.564183 41.702647)","2023-173874"
"2023","251786","StClement_School","Submitted","2524 N. Orchard St.","60614","3.0",,"Lincoln Park","K-12 School","75,507","1950","1",,"68","1,497,921.9","2,368,800.2",,,,"51.2","88.5","57.9","95.5","335.4","4.4","41.946553","-87.700536","POINT (-87.700536 41.946553)","2023-251786"
"2023","257173","24 East Washington Street","Submitted","24 East Washington Street","60602","4.0",,"Loop","Office","707,816","2020","0","872","94","7,017,333.7","12,330,899.6",,"9,992,472.4",,"41.5","58.9","43.5","61.2","2,163.4","3.1","41.883448","-87.626994","POINT (-87.626994 41.883448)","2023-257173"
"2023","101827","Burnham Center","Submitted","111 West Washington","60602","3.5",,"Loop","Office","597,773","1914","1",,"78","19,972,952.7","24,817,847.9",,,,"74.9","137.1","81.5","143.8","4,112.8","6.9","41.884596","-87.628795","POINT (-87.628795 41.884596)","2023-101827"
"2023","251942","Lake Shore Hospitality Inc","Not Submitted","4900 S Lake Shore Dr","60615","0.0",,"Kenwood","Residential",,,,,,,,,,,,,,,,,"41.926297","-87.785695","POINT (-87.785695 41.926297)","2023-251942"
"2023","256903",,"Not Covered 2024","2310 S State St","60616",,"true","Near South Side",,,,,,,,,,,,,,,,,,"41.86832","-87.62599","POINT (-87.62599 41.86832)","2023-256903"
"2023","102613",,"Not Submitted","7914 7932 S Wabash Ave","60619","0.0",,"Chatham","Residential",,,,,,,,,,,,,,,,,"41.90427","-87.63738","POINT (-87.63738 41.90427)","2023-102613"
"2023","251225","314 West Superior Street","Submitted","314 West Superior Street","60654","4.0",,"Near North Side","Office","109,032","1910","1",,"78","3,545,564.1","2,693,551.8",,,,"57.2","117","60.7","120","639.2","5.9","41.882248","-87.624517","POINT (-87.624517 41.882248)","2023-251225"
"2023","244591","630 North State Parkway Condo","Submitted","630 North State","60654","1.0",,"Near North Side","Multifamily Housing","244,750","2001","1",,"3","8,582,812.5","15,045,684.6",,"6,027,433.9",,"121.2","185.1","124.7","189.1",,,"41.886876","-87.624685","POINT (-87.624685 41.886876)","2023-244591"
"2023","257075",,"Not Covered 2024","626 S Wabash Ave","60605",,"true","Loop","Commercial",,,,,,,,,,,,,,,,,"41.873776","-87.626301","POINT (-87.626301 41.873776)","2023-257075"
"2023","256812","Woodlawn - University of Chicago","Submitted","1156 E 61st Street","60637","3.5",,"Woodlawn","Multifamily Housing","385,000","2019","1","13,856","78","12,980,727.8","17,842,785.8",,,,"80.1","143.1","84.6","147.2","2,764","7.2","41.885433","-87.654528","POINT (-87.654528 41.885433)","2023-256812"
"2023","144123","Parkville Condominiums","Not Submitted","5726 5744 S Dr Martin Luther King Jr Dr","60637","0.0",,"Washington Park","Residential",,,,,,,,,,,,,,,,,"41.894183","-87.628286","POINT (-87.628286 41.894183)","2023-144123"
"2023","158414","Old Republic Building","Submitted","301 317 N. Michigan Ave.","60601","3.5",,"Loop","Office","219,636","1925","1","4,206","77","6,393,611.1","8,986,060.1",,,,"70","124.5","76.1","131.8","1,371.9","6.2","41.889384","-87.765039","POINT (-87.765039 41.889384)","2023-158414"
"2023","116966","Universal City","Submitted","9510 S. Constance Ave","60617","4.0",,"South Deering","Multifamily Housing","162,981","1980","5","8,720","88","2,946,386.2","6,551,626",,,,"58.3","92.8","62.5","97.3","760.2","4.7","41.94107","-87.641354","POINT (-87.641354 41.94107)","2023-116966"
"2023","256775","Pullman Community Center","Not Submitted","10355 S Woodlawn Ave","60628","0.0",,"Pullman","Other",,,,,,,,,,,,,,,,,"41.773434","-87.569834","POINT (-87.569834 41.773434)","2023-256775"
"2023","254077","3021 S Michigan","Submitted","3001 S Michigan Ave","60616","1.0",,"Douglas","Multifamily Housing","67,133","1964","1",,"12","935,430.3","7,991,309.4",,,,"133","164","149.5","181.8","555.3","8.3","41.907047","-87.646055","POINT (-87.646055 41.907047)","2023-254077"
"2023","101503",,"Not Submitted","5604 5624 S Wabash Ave","60637","0.0",,"Washington Park","Residential",,,,,,,,,,,,,,,,,"41.895758","-87.624419","POINT (-87.624419 41.895758)","2023-101503"
"2023","137570","EuroFurniture","Not Covered 2024","2145 W Grand Ave","60612",,"true","West Town","Retail Store",,,,,,,,,,,,,,,,,"41.887757","-87.625518","POINT (-87.625518 41.887757)","2023-137570"
"2023","115022","Yesteryear Condominium Association","Not Submitted","4211 4221 N Paulina St","60613","0.0",,"Lake View","Residential",,,,,,,,,,,,,,,,,"41.97461","-87.8088","POINT (-87.8088 41.97461)","2023-115022"
"2023","101887","550 West Adams","Submitted","550 W. Adams","60661","4.0",,"Near West Side","Office","519,368","2006","1",,"87","17,218,554.3","197,053.1",,,,"33.5","93.2","35.3","98.1","2,419.7","4.7","41.993264","-87.655634","POINT (-87.655634 41.993264)","2023-101887"
"2023","252092","Gateway Center","Not Submitted","10808 - 10830 S Doty Ave W","60628","0.0",,"Pullman","Retail Store",,,,,,,,,,,,,,,,,"41.955783","-87.648656","POINT (-87.648656 41.955783)","2023-252092"
"2023","175693","Central Park Apartments","Submitted","4501-15 N. Central Park","60625","4.0",,"Albany Park","Multifamily Housing","50,000","1995","1","3,244","92","590,300.6","1,890,500",,,,"49.6","72.8","55.8","78.7","183","3.7","41.943187","-87.688302","POINT (-87.688302 41.943187)","2023-175693"
"2023","158748","American Islamic College","Not Submitted","640 W Irving Park Rd","60613","0.0",,"Uptown","Commercial",,,,,,,,,,,,,,,,,"41.937382","-87.726824","POINT (-87.726824 41.937382)","2023-158748"
"2023","251446","Randolph Elementary -CPS","Not Covered 2024","7316 S Hoyne Ave","60636",,"true","West Englewood","K-12 School",,,,,,,,,,,,,,,,,"41.685709","-87.622753","POINT (-87.622753 41.685709)","2023-251446"
"2023","119564","Plaza Arms","Not Submitted","501 525 N Central Ave","60644","0.0",,"Austin","Residential",,,,,,,,,,,,,,,,,"41.781575","-87.647438","POINT (-87.647438 41.781575)","2023-119564"
"2023","113617","1418 North Lake Shore Drive Condominium Association","Submitted","1418 N Lake Shore Drive","60610","1.5",,"Near North Side","Multifamily Housing","95,475","1983","1",,"34","3,901,207.6","2,619,138.6",,,,"68.3","143.2","74.9","156.3","685","7.2","41.884628","-87.618643","POINT (-87.618643 41.884628)","2023-113617"
"2023","252313","Salvation Army - Divisional HeadOuarters (DHO)","Submitted","5040 N. Pulaski Road","60641","1.0",,"North Park","Office","75,852","1923","1",,,"2,192,526.6","5,073,299.8",,,,"95.8","151.2","108.7","164","576.2","7.6","41.931407","-87.653964","POINT (-87.653964 41.931407)","2023-252313"
"2023","160319","500 Lake Shore Drive","Submitted","500 Lake Shore Drive","60611","3.5",,"Near North Side","Multifamily Housing","716,899","2013","1","19,602","77","17,172,846.6","16,918,419",,,,"47.6","91.9","50.5","95","3,301.4","4.6","41.898335","-87.6514","POINT (-87.6514 41.898335)","2023-160319"
"2023","250137","Club Ouarters East Wacker Drive","Submitted","75 East Wacker Drive","60601","2.0",,"Loop","Hotel","178,845","1928","1",,"49","6,611,497","13,197,000.1",,,,"110.8","181","117.2","187.4","1,626","9.1","41.791088","-87.601149","POINT (-87.601149 41.791088)","2023-250137"
"2023","257098",,"Not Covered 2024","2924 W Medill Ave","60647",,"true","Logan Square","Residential",,,,,,,,,,,,,,,,,"41.923882","-87.700911","POINT (-87.700911 41.923882)","2023-257098"
"2023","159637","Hawthorne House","Submitted","3450 N Lake Shore Drive","60657","2.5",,"Lake View","Multifamily Housing","530,632","1968","1","14,060","52","9,521,993.6","33,638,053.9",,,,"81.3","116.8","88.4","123.8","3,119","5.9","41.940019","-87.724744","POINT (-87.724744 41.940019)","2023-159637"
"2023","251757","Thorp O","Submitted","6024 W Warwick Ave","60634","1.0",,"Dunning","K-12 School","93,200","1918","1",,"15","2,019,672","8,863,460.1",,,,"116.8","160.5","141.4","186.4","753.4","8.1","41.897254","-87.632868","POINT (-87.632868 41.897254)","2023-251757"
"2023","101731","175 W. Jackson","Submitted","175 W. Jackson","60604","4.0",,"Loop","Office","1,809,140","1928","1","7,179","79","42,299,267.8","37,583,922",,"28,019,232.2",,"59.6","101.4","62.6","104.7","9,391.4","5.2","41.922791","-87.653377","POINT (-87.653377 41.922791)","2023-101731"
"2023","251478","Chicago World Language Academy","Submitted","1340 W Harrison St","60607","1.0",,"Near West Side","K-12 School","74,135","1989","1",,"4","3,390,951.2","5,661,700.1",,,,"122.1","208.3","136.2","223","775.2","10.5","41.882229","-87.757639","POINT (-87.757639 41.882229)","2023-251478"
"2023","257065",,"Not Covered 2024","3928 N Lincoln Ave","60613",,"true","North Center",,,,,,,,,,,,,,,,,,"41.953091","-87.678288","POINT (-87.678288 41.953091)","2023-257065"
"2023","233591","Forty East Cedar Condominium","Submitted","40 E Cedar St","60611","3.5",,"Near North Side","Multifamily Housing","96,895","1968","1",,"80","2,247,993.6","3,353,276",,,,"57.8","101.3","62.4","105.7","492.6","5.1","41.897974","-87.626338","POINT (-87.626338 41.897974)","2023-233591"
"2023","133879","Medinah Temple","Submitted","600-820 N. Wabash St.","60611","1.0",,"Near North Side","Retail Store","130,000","1912","1",,"3","11,652,850","2,655,300",,,,"110.1","272.4","110.1","272.4","1,771.5","13.6","41.909544","-87.631535","POINT (-87.631535 41.909544)","2023-133879"
"2023","165274","Hayes Manor Senior Apartments","Not Submitted","1211 W Marquette Rd","60636","0.0",,"West Englewood","Residential",,,,,,,,,,,,,,,,,"41.890844","-87.637895","POINT (-87.637895 41.890844)","2023-165274"
"2023","251648","Spencer Elementary Academy -CPS","Not Covered 2024","214 N Lavergne Ave","60644",,"true","Austin","K-12 School",,,,,,,,,,,,,,,,,"41.885175","-87.750785","POINT (-87.750785 41.885175)","2023-251648"
"2023","101871","123 N Wacker","Submitted","123 N Wacker","60606","3.5",,"Loop","Office","555,996","1986","1","3","73","24,212,053.4",,,,,"43.5","121.9","46.3","129.8","3,387.7","6.1","41.88779","-87.621279","POINT (-87.621279 41.88779)","2023-101871"
"2023","250038","Brooks HS","Submitted","250 E 111th St","60628","1.0",,"Roseland","K-12 School","264,710","1914","5",,"16","9,940,493.5","17,861,021.2",,,,"105","176","116","187.6","2,339.6","8.8","41.956185","-87.731068","POINT (-87.731068 41.956185)","2023-250038"
"2023","120218","Walmart Supercenter #5402","Submitted","4650 W. North Avenue","60639","1.0",,"Austin","Wholesale Club/Supercenter","141,676","2010","1","7,791","17","10,537,919.7","6,801,868",,,,"122.4","258.7","129.8","266.2","1,835.7","13","41.905651","-87.659799","POINT (-87.659799 41.905651)","2023-120218"
"2023","251676","Clinton","Submitted","6110 N Fairfield Ave","60659","1.0",,"West Ridge","K-12 School","136,047","1926","3",,"19","3,872,453","9,277,400",,,,"96.7","151.3","110.8","166.2","1,034.6","7.6","41.880206","-87.632168","POINT (-87.632168 41.880206)","2023-251676"
"2023","119405",,"Not Submitted","226 W Ontario St","60654","0.0",,"Near North Side","Commercial",,,,,,,,,,,,,,,,,"41.904296","-87.633082","POINT (-87.633082 41.904296)","2023-119405"
"2023","100637","Addison Towers","Submitted","510-534 Addison","60616","3.5",,"Lake View","Multifamily Housing","109,224","1920","1",,"55","855,699.5","7,165,481",,,,"73.4","90.8","81.5","99.5","500.3","4.6","41.902467","-87.633022","POINT (-87.633022 41.902467)","2023-100637"
"2023","251627","Edison Park","Submitted","6220 N Olcott Ave","60631","1.5",,"Norwood Park","K-12 School","60,475","1948","2",,"38","1,786,478.8","2,271,379.7",,,,"67.1","122.2","76.3","131","370.6","6.1","41.729259","-87.554468","POINT (-87.554468 41.729259)","2023-251627"
"2023","101519","239-Senior Suites of MarOuette Village","Submitted","7430 S. Rockwell","60629","4.0",,"Chicago Lawn","Senior Living Community","77,682","2010","1","4,620","86","1,892,291.8","2,831,300.3",,,,"60.8","106.5","64.7","110.4","415.2","5.3","41.866959","-87.726317","POINT (-87.726317 41.866959)","2023-101519"
"2023","101722","500 West Monroe","Submitted","500 West Monroe","60661","4.0",,"Near West Side","Office","1,153,491","1992","1","5,567","87","51,474,333.9",,,,,"44.6","124.9","47.2","132.2","7,202.3","6.2","41.926514","-87.639296","POINT (-87.639296 41.926514)","2023-101722"
"2023","101840","8602","Submitted","710 Lake Shore Dr","60611","1.0",,"Near North Side","College/University","236,060","1939","1","1,321",,"17,537,363.3","21,943,584.6",,,,"167.2","305.6","180.8","319.9","3,619.3","15.3","41.821634","-87.601944","POINT (-87.601944 41.821634)","2023-101840"
"2023","157587","Loretto Hospital","Not Submitted","645 S Central Ave","60644","0.0",,"Austin","Commercial",,,,,,,,,,,,,,,,,"41.82269","-87.618374","POINT (-87.618374 41.82269)","2023-157587"
"2023","251420","Carson","Submitted","5516 S Maplewood Ave","60629","1.0",,"Gage Park","K-12 School","138,015","1917","2",,"8","5,311,238.6","9,507,810",,,,"107.4","180.1","122.1","196","1,248.2","9","41.883334","-87.62505","POINT (-87.62505 41.883334)","2023-251420"
"2023","254329","901 S Plymouth","Submitted","901 South Plymouth Court","60605","3.0",,"Loop","Multifamily Housing","161,700","1979","1",,"61","5,164,990.9","4,942,857.8",,,,"62.5","121.5","68.8","134.1","985.2","6.1","41.862904","-87.701867","POINT (-87.701867 41.862904)","2023-254329"
"2023","244534","One Museum Park East Condominium Association","Submitted","1211 S. Prairie Private","60605","3.5",,"Near South Side","Multifamily Housing","952,287","2008","1",,"78","19,108,268.8","38,626,732.4",,,,"60.6","98.8","65.1","103.5","4,725.3","5","41.7796","-87.647269","POINT (-87.647269 41.7796)","2023-244534"
"2023","240299","(IL1071) - The Pinnacle Condo (21 E. Huron St)","Submitted","21 E. Huron St","60611","1.0",,"Near North Side","Multifamily Housing","610,691","2004","1",,"11","30,782,445.2","7,921,997.1",,,,"63.4","154.8","68.9","170.1","4,727.8","7.7","41.838327","-87.617613","POINT (-87.617613 41.838327)","2023-240299"
"2023","256759","Warren Apartments","Not Submitted","1533 W.Warren Blvd","60607","0.0",,"Near West Side","Residential",,,,,,,,,,,,,,,,,"41.977336","-87.839497","POINT (-87.839497 41.977336)","2023-256759"
"2023","137063","West Point Plaza Venture LLLP","Submitted","300 S Damen","60612","1.0",,"Near West Side","Multifamily Housing","172,118","1978","1",,"15","8,943,192.6","2,270,638.7",,,,"65.2","159.3","71.4","176.1","1,371.9","8","41.956582","-87.654456","POINT (-87.654456 41.956582)","2023-137063"
"2023","131935","Continental Nursing & Rehabilitation Center","Submitted","5336 N. Western Avenue","60625","1.0",,"Lincoln Square","Senior Living Community","51,000","1976","1",,"9","2,286,099.2","7,577,060.1",,,,"193.4","281.5","212.3","299.6","722.3","14.2","41.903441","-87.668505","POINT (-87.668505 41.903441)","2023-131935"
"2023","256568","Vista Tower","Not Submitted","363 E Wacker Dr","60601","0.0",,"Loop",,,,,,,,,,,,,,,,,,"41.67812","-87.662639","POINT (-87.662639 41.67812)","2023-256568"
"2023","101799","200 South Wacker Property LLC","Submitted","200 South Wacker Drive","60606","3.0",,"Loop","Office","843,070","1981","1",,"67","43,220,220.1",,,,,"51.3","143.5","55.6","155.7","6,047.4","7.2","41.893857","-87.635796","POINT (-87.635796 41.893857)","2023-101799"
"2023","175845","The Park Terrace","Submitted","2451 W Howard St","60645","2.0",,"West Ridge","Multifamily Housing","84,000","1948","1",,"44","1,837,390.1","5,196,279.7",,,,"83.7","126.2","105.3","147.3","533.1","6.3","41.759231","-87.559598","POINT (-87.559598 41.759231)","2023-175845"
"2023","100489",,"Not Submitted","4520 4528 S Drexel Blvd","60653","0.0",,"Kenwood","Residential",,,,,,,,,,,,,,,,,"41.933726","-87.641519","POINT (-87.641519 41.933726)","2023-100489"
"2023","255925","1955 North Richmond Street","Submitted","1955 North Richmond Street","60622","2.5",,"Logan Square","Multifamily Housing","53,000","2018","1",,"53","965,815.1","2,608,399.7",,,,"67.4","102.7","74.5","109.7","273.7","5.2","41.895051","-87.634013","POINT (-87.634013 41.895051)","2023-255925"
"2023","115784","The Highland Apartments, LLC","Submitted","7455-7469 N. Greenview Ave.","60626","4.0",,"Rogers Park","Multifamily Housing","51,330","1915","1",,"89","669,360.9","3,576,122.9",,,,"82.7","109.7","93.7","121.1","283.6","5.5","41.895348","-87.643105","POINT (-87.643105 41.895348)","2023-115784"
"2023","251996","(IL1068) - Prairie Pointe at Central Station Condo (1600 S Prairie Ave )","Submitted","1600 S Prairie Ave","60616","1.5",,"Near South Side","Multifamily Housing","269,200","2006","1",,"36","6,888,020.6","16,575,953.6",,,,"87.2","136.3","92.4","140.9","1,844.2","6.9","41.705567","-87.601074","POINT (-87.601074 41.705567)","2023-251996"
"2023","126126","Pete's Kedgie","Submitted","4700 S. Kedgie","60632","2.0",,"Brighton Park","Supermarket/Grocery Store","54,000","1990","0",,"41","8,620,073.9","5,885,497.1",,,,"268.6","561.4","279.1","571.6","1,518.7","28.1","42.006496","-87.661359","POINT (-87.661359 42.006496)","2023-126126"
"2023","251443","Madison Elementary -CPS","Not Covered 2024","7401 S Dorchester","60619",,"true","South Shore","K-12 School",,,,,,,,,,,,,,,,,"41.698014","-87.595716","POINT (-87.595716 41.698014)","2023-251443"
"2023","239078","801 S Plymouth Court","Submitted","801 South Plymouth Court","60605","2.0",,"Loop","Multifamily Housing","250,000","1983","1",,"50","7,224,731.7","6,968,210.1",,,,"56.8","110.2","61.7","119.5","1,381","5.5","41.90872","-87.626129","POINT (-87.626129 41.90872)","2023-239078"
"2023","175340",,"Not Submitted","4310 4322 N Clarendon Ave","60613","0.0",,"Uptown","Residential",,,,,,,,,,,,,,,,,"41.880376","-87.763275","POINT (-87.763275 41.880376)","2023-175340"
"2023","160354","Asbury Plaza Venture LLLP","Submitted","750 N. Dearborn","60654","4.0",,"Near North Side","Multifamily Housing","356,989","1981","1",,"67","7,368,304.9","19,066,570.9",,,,"74","113.9","82.8","123.6","2,043.7","5.7","41.967234","-87.663986","POINT (-87.663986 41.967234)","2023-160354"
"2023","119223","1980 - KIMBALL & ADDISON","Submitted","3500 N Kimball Ave","60618","3.0",,"Avondale","Retail Store","109,634","2003","1","2,715","65","3,665,078","6,580,599.8",,,,"93.5","156.6","105.9","170.1","862.3","7.9","41.76407","-87.602011","POINT (-87.602011 41.76407)","2023-119223"
"2023","101356","DePaul College Prep","Not Covered 2024","3633 N California","60618",,"true","Irving Park","K-12 School",,,,,,,,,,,,,,,,,"41.883498","-87.6372","POINT (-87.6372 41.883498)","2023-101356"
"2023","114798","The Woodlawn Condominium Association","Submitted","5042-5056 S. Woodlawn Ave.","60616","4.0",,"Kenwood","Multifamily Housing","59,728","1908","1",,,"577,117.2","3,364,562.1",,,,"66","86.2","74.1","95.9","259.5","4.3","41.804756","-87.583864","POINT (-87.583864 41.804756)","2023-114798"
"2023","250144","11 East Adams LLC","Submitted","11 East Adams","60603","3.5",,"Loop","Office","161,166","1961","1",,"58","5,471,756.9","10,746,221.4",,,,"100.6","165.1","117.5","185","1,336.4","8.3","41.987526","-87.84508","POINT (-87.84508 41.987526)","2023-250144"
"2023","256885","Westerly - CO (ws320)","Submitted","740 N Aberdeen St","60642","4.0",,"West Town","Multifamily Housing","220,601","2020","1","5,304","70","4,950,510.9","6,453,121",,,,"51.7","93.5","55","97","1,035.4","4.7","41.754691","-87.645507","POINT (-87.645507 41.754691)","2023-256885"
"2023","158743","Buena Pointe Condominium","Submitted","4350 N Broadway","60613","1.0",,"Uptown","Multifamily Housing","149,524","2004","1",,"29","3,436,552.5","8,746,753",,,,"81.5","125.8","88","132.3","945.4","6.3","41.89498","-87.6244","POINT (-87.6244 41.89498)","2023-158743"
"2023","251859","Epic Academy Charter High School","Submitted","8255 S. Houston","60617","3.5",,"South Chicago","K-12 School","69,921","1902","1",,"77","997,031.7","2,285,377.8",,,,"46.9","74.2","54.5","82.1","260.9","3.7","41.937577","-87.642531","POINT (-87.642531 41.937577)","2023-251859"
"2023","103712","Water Tower Place","Submitted","835 N. Michigan Avenue","60611",,"true","Near North Side","Mixed Use Property","2,581,145","1976","1","65,139",,"137,543,611","63,254,981.4",,,,"77.8","174.9","81.6","181.5","22,604.8","8.8","41.953774","-87.648061","POINT (-87.648061 41.953774)","2023-103712"
"2023","251282","1100 N. Dearborn","Submitted","1100 N. Dearborn St.","60610","3.5",,"Near North Side","Multifamily Housing","179,090","1930","1","6,394","51","3,088,931.6","14,207,235",,,,"96.6","131.6","109.6","144.9","1,186.8","6.6","41.741057","-87.631826","POINT (-87.631826 41.741057)","2023-251282"
"2023","160372","AMLI River North","Submitted","71 West Hubbard St","60654","2.5",,"Near North Side","Multifamily Housing","452,449","2013","1","14,546","55","13,650,046.2","15,551,798.3",,,,"64.5","120.6","67.4","123.6","2,735.9","6","41.892711","-87.620131","POINT (-87.620131 41.892711)","2023-160372"
"2023","113593","(IL1039) - 1335 Astor Cooperative (1335 N. Astor St.)","Submitted","1335 N. Astor St.","60660","3.0",,"Near North Side","Multifamily Housing","110,100","1949","1",,"62","1,695,463.4","6,897,900.6",,,,"78.1","108.9","88.5","120","603.6","5.5","41.994487","-87.670298","POINT (-87.670298 41.994487)","2023-113593"
"2023","101874","444 N. Michigan","Submitted","444 N. Michigan Avenue","60611","1.5",,"Near North Side","Office","517,115","1976","1","8,759","36","40,658,021.4","39,649.4",,,,"78.7","220.2","85.4","239","5,691","11","41.910352","-87.633269","POINT (-87.633269 41.910352)","2023-101874"
"2023","252251","Chinatown","Submitted","300 W 23rd St.","60616","4.0",,"Armour Square","Multifamily Housing","114,205","1976","1",,"81","3,366,684.6","1,858,978.6",,,,"45.8","99.6","50.5","111.5","569.8","5","41.893691","-87.62692","POINT (-87.62692 41.893691)","2023-252251"
"2023","260123",,"Not Submitted","5355 5371 N Delphia Ave","60656","0.0",,"Ohare","Residential",,,,,,,,,,,,,,,,,"41.889062","-87.633485","POINT (-87.633485 41.889062)","2023-260123"
"2023","254977","10643 - LVW  Lakeview","Submitted","3201 North Ashland Avenue","60657","4.0",,"Lake View","Supermarket/Grocery Store","82,147","2017","1","4,534","64","12,279,972.7","7,831,100",,,,"244.8","518.7","254.2","528.6","2,134.2","26","41.754944","-87.724552","POINT (-87.724552 41.754944)","2023-254977"
"2023","112698","6300 Sheridan Building Condominium Association","Submitted","6300 North Sheridan","60660","3.0",,"Edgewater","Multifamily Housing","140,841","1978","1",,"61","1,671,477.4","9,580,800.1",,,,"79.9","104.7","91","116.2","742.8","5.3","41.916251","-87.634906","POINT (-87.634906 41.916251)","2023-112698"
"2023","172900","Victory Centre of Galewood","Not Submitted","2370 N Newcastle Ave","60707","0.0",,"Montclare","Senior Care Community",,,,,,,,,,,,,,,,,"42.019289","-87.675059","POINT (-87.675059 42.019289)","2023-172900"
"2023","175817","BENCHMARK ID #175817","Submitted","1450 N Cicero Ave","60651","4.0",,"Austin","Other - Mall","87,000","1980","1","150",,"1,626,175","1,958,120.8",,,,"41.2","76","51.5","86.8","331.5","3.8","41.882695","-87.632531","POINT (-87.632531 41.882695)","2023-175817"
"2023","175825","Sutherland","Submitted","4659 S. Drexel","60615","2.0",,"Kenwood","Multifamily Housing","145,230","1918","1",,"48","5,028,484.5","2,688,318.6",,,,"53.1","116.4","57.1","125.9","846.4","5.8","41.87859","-87.664196","POINT (-87.664196 41.87859)","2023-175825"
"2023","160343","100 W. Chestnut St.","Submitted","100 W. Chestnut St.","60642","4.0",,"Near North Side","Multifamily Housing","292,445","1983","1","11,133","91","5,429,023.9","9,773,060.2",,,,"52","87.1","56.6","92","1,278.7","4.4","41.987469","-87.790161","POINT (-87.790161 41.987469)","2023-160343"
"2023","104100","711 W Gordon Terrace","Submitted","711 W Gordon Terrace","60613","3.0",,"Uptown","Multifamily Housing","121,026","1979","1",,"63","5,153,150.5",,,,,"42.6","119.2","46","128.9","721","6","41.985932","-87.728369","POINT (-87.728369 41.985932)","2023-104100"
"2023","160347","Dwight Lofts (dw26)","Submitted","642 S Clark St","60605","1.0",,"Loop","Multifamily Housing","196,808","2008","1","19,087","21","7,617,072.9","6,466,996",,,,"71.6","142.9","72.9","143.7","1,409.3","7.2","41.890798","-87.642252","POINT (-87.642252 41.890798)","2023-160347"
"2023","102323",,"Not Submitted","3515 3525 W Franklin Blvd","60624","0.0",,"Humboldt Park","Residential",,,,,,,,,,,,,,,,,"41.868834","-87.626009","POINT (-87.626009 41.868834)","2023-102323"
"2023","244200","Michigan Avenue Tower Condominium Association","Submitted","1250 S. Michigan Ave.","60605","2.5",,"Near South Side","Multifamily Housing","402,711","2008","1",,"58","11,723,369.1","9,854,764.4",,,,"53.6","107.2","57.7","114","2,163.8","5.4","41.935715","-87.637792","POINT (-87.637792 41.935715)","2023-244200"
"2023","102368","Bradley Business Center II","Submitted","2500 West Bradley Place","60618",,"true","North Center","Other","374,000","1956","1",,,"7,375,153.2","7,512,720.6",,,,"39.8","76.3","43","80.3","1,431","3.8","41.944531","-87.642337","POINT (-87.642337 41.944531)","2023-102368"
"2023","251535","U Of C - Donoghue","Submitted","707 E 37th St","60653","1.0",,"Oakland","K-12 School","74,828","1963","1",,"20","2,033,091.4","5,206,240.2",,,,"96.7","149.1","111","164.9","561","7.5","41.962505","-87.679153","POINT (-87.679153 41.962505)","2023-251535"
"2023","160397","ABLA/Brooks Homes","Submitted","1324 S. Loomis Street","60608","1.0",,"Near West Side","Multifamily Housing","279,510","1997","26",,"9","8,631,294.4","26,310,700.3",,,,"125","185.3","135.5","196.8","2,605.2","9.3","41.844233","-87.621958","POINT (-87.621958 41.844233)","2023-160397"
"2023","257064","Cassidy on Canal","Not Covered 2024","350 N Canal St","60654",,"true","Near West Side","Residential",,,,,,,,,,,,,,,,,"41.88842","-87.640179","POINT (-87.640179 41.88842)","2023-257064"
"2023","164980","WTTW 11 - Main Campus","Submitted","5400 N. St. Louis","60625","2.0",,"North Park","Office","183,047","1964","1",,"22","14,300,432.6",,,,,"78.1","218.7","78.1","218.7","2,000.9","10.9","41.89461","-87.634001","POINT (-87.634001 41.89461)","2023-164980"
"2023","257105",,"Not Covered 2024","1203 N California Ave","60622",,"true","West Town","Residential",,,,,,,,,,,,,,,,,"41.903216","-87.696464","POINT (-87.696464 41.903216)","2023-257105"
"2023","242162","The Caravel","Submitted","635 North Dearborn Street","60654","3.5",,"Near North Side","Multifamily Housing","212,000","2003","1",,"72","3,747,486.7","12,618,689.6",,,,"77.2","112","84.3","119.4","1,194.6","5.6","41.882411","-87.637175","POINT (-87.637175 41.882411)","2023-242162"
"2023","132435",,"Not Submitted","1335 1345 W Lake St","60607","0.0",,"Near West Side","Commercial",,,,,,,,,,,,,,,,,"41.890042","-87.637869","POINT (-87.637869 41.890042)","2023-132435"
"2023","101742","James R Thompson Center","Not Covered 2024","100 W Randolph St","60601",,"true","Loop","Office",,,,,,,,,,,,,,,,,"41.683992","-87.725017","POINT (-87.725017 41.683992)","2023-101742"
"2023","244449","30 East Huron Condominium Association","Submitted","30 E Huron","60611","1.0",,"Near North Side","Multifamily Housing","555,980","1980","1",,"13","27,220,203.9","15,508,092.9",,,,"76.9","166.4","84.6","184.6","4,632.3","8.3","41.785989","-87.591182","POINT (-87.591182 41.785989)","2023-244449"
"2023","254978","Cubs Office Building","Submitted","1101 West Waveland Ave","60613","2.0",,"Lake View","Office","247,887","2017","1",,"28","11,201,066.3","30,582,044.1",,,,"168.6","256.1","175.9","262.7","3,191.6","12.9","41.850131","-87.635273","POINT (-87.635273 41.850131)","2023-254978"
"2023","241377","Wells Street Tower Condominium Association","Submitted","701 South Wells Street","60607","1.0",,"Loop","Multifamily Housing","267,196","2002","1",,"26","8,850,348.7","15,333,510.9",,,,"90.5","153","99.5","164.5","2,052.8","7.7","41.954784","-87.668916","POINT (-87.668916 41.954784)","2023-241377"
"2023","129621","Chalet Living and Rehab","Submitted","7350 N. Sheridan Rd.","60626","1.0",,"Rogers Park","Senior Living Community","67,004","1976","1",,"8","3,578,900.6","10,809,012.3",,,,"214.7","318.9","239.7","344.6","1,074.9","16","41.854193","-87.622696","POINT (-87.622696 41.854193)","2023-129621"
"2023","256655","The Oliver on LaSalle - lv048","Submitted","1140 N La Salle St","60610","4.0",,"Near North Side","Multifamily Housing","91,427","1924","2","5,643","96","1,793,781","5,753,654.5",,,,"82.6","121","90.9","129.5","556.6","6.1","41.93412","-87.656192","POINT (-87.656192 41.93412)","2023-256655"
"2023","102766","Brandon Shores Condo Association","Submitted","6150 N Kenmore","60660","2.5",,"Edgewater","Multifamily Housing","73,000","1962","1",,"58","1,319,352.1","4,662,246.4",,,,"81.9","117.7","93.3","129.3","432.2","5.9","41.917444","-87.689884","POINT (-87.689884 41.917444)","2023-102766"
"2023","252069","Chicago South Loop Hotel","Not Submitted","11 W 26th St","60616","0.0",,"Douglas","Hotel",,,,,,,,,,,,,,,,,"41.804568","-87.606312","POINT (-87.606312 41.804568)","2023-252069"
"2023","121059","Center on Halsted","Submitted","3656 N Halsted","60613","1.5",,"Lake View","Mixed Use Property","103,640","2007","1",,"31","12,761,184.4","9,339,560.1",,,,"213.2","439.4","224.2","450.9","2,281.6","22","41.980473","-87.654953","POINT (-87.654953 41.980473)","2023-121059"
"2023","252058","Logan Arts Center","Submitted","915 E 60th St.","60637","2.0",,"Woodlawn","Performing Arts","188,821","2011","1","4,221",,"6,469,500.1",,"2,258,092.8","6,117,852",,"78.6","139.8","77.1","138.6","1,377.6","7.3","41.809669","-87.675116","POINT (-87.675116 41.809669)","2023-252058"
"2023","175244","Washtenaw on the Park","Submitted","4755 N Washtenaw Avenue","60625","4.0",,"Lincoln Square","Multifamily Housing","51,200","2007","1",,"96","877,890.5","671,551.9",,,,"30.3","61.8","33.7","65.2","158.5","3.1","41.893321","-87.618967","POINT (-87.618967 41.893321)","2023-175244"
"2023","250141","180 N Wacker Dr","Not Submitted","180 N Wacker Dr","60606","0.0",,"Loop","Office",,,,,,,,,,,,,,,,,"41.805576","-87.620123","POINT (-87.620123 41.805576)","2023-250141"
"2023","118776","Gleacher Center","Submitted","450 North Cityfront Plaza","60611","2.0",,"Near North Side","College/University","214,684","1993","1",,,"14,037,022.6","1,082,280",,,,"70.4","188.4","70.4","188.4","2,021.5","9.4","41.951299","-87.650112","POINT (-87.650112 41.951299)","2023-118776"
"2023","254534","Prairie District Lofts Condominium Association","Not Submitted","1727 S Indiana Ave","60616","0.0",,"Near South Side","Residential",,,,,,,,,,,,,,,,,"41.878002","-87.634409","POINT (-87.634409 41.878002)","2023-254534"
"2023","251451","Madero","Submitted","3202 W 28th St","60623","2.5",,"South Lawndale","K-12 School","62,071","1996","1",,"34","1,935,586.7","2,350,499.9",,,,"69.1","127.1","77.1","135.7","395.7","6.4","41.827202","-87.611569","POINT (-87.611569 41.827202)","2023-251451"
"2023","101878","200 West Jackson Boulevard Building","Submitted","200 West Jackson Blvd.","60606","3.5",,"Loop","Office","534,330","1971","1",,"71","12,535,612","26,381,418.5",,"7,982,928.2",,"87.8","131.1","94.1","137.9","3,575.9","6.7","41.88321","-87.649973","POINT (-87.649973 41.88321)","2023-101878"
"2023","257045",,"Not Covered 2024","513 S Damen Ave","60612",,"true","Near West Side","Residential",,,,,,,,,,,,,,,,,"41.87466","-87.675844","POINT (-87.675844 41.87466)","2023-257045"
"2023","244503","5000 East End Condominium Association","Submitted","5000 East End Ave.","60615","3.0",,"Kenwood","Multifamily Housing","234,944","1928","1",,"70","2,335,664.9","16,883,519.6",,,,"81.8","103.3","91.2","113.6","1,223.6","5.2","41.96548","-87.654642","POINT (-87.654642 41.96548)","2023-244503"
"2023","251250","Lincoln Park Villas CA","Submitted","1920 N. Clark Street","60614","2.5",,"Lincoln Park","Multifamily Housing","71,733","1974","1",,"53","3,015,863.8","866,457",,,,"54.1","130.4","59.8","145.6","468","6.5","41.764542","-87.559926","POINT (-87.559926 41.764542)","2023-251250"
"2023","260093","5514 Blackstone Ave","Submitted","5514 S. Blackstone Ave","60615","2.5",,"Hyde Park","Multifamily Housing","72,940","1913","1",,"60","675,210.4","5,246,143.6",,,,"81.2","101.4","92.4","113.1","373.1","5.1","41.988575","-87.812978","POINT (-87.812978 41.988575)","2023-260093"
"2023","251930","The Granville Condominum Association","Submitted","1134 West Granville","60660","2.0",,"Edgewater","Multifamily Housing","241,280","2008","1",,"42","8,606,853.6","14,690,700.1",,,,"96.6","163.8","107.8","176.6","1,984.6","8.2","41.769929","-87.690841","POINT (-87.690841 41.769929)","2023-251930"
"2023","256893","(IL494) - Cirrus Condominium (211 N Harbor Dr )","Submitted","211 N Harbor Dr","60601","4.0",,"Loop","Multifamily Housing","572,929","2021","1",,"83","15,021,433.7","17,091,251",,,,"56.1","104.7","61.2","110.7","3,009.6","5.3","41.770939","-87.666559","POINT (-87.666559 41.770939)","2023-256893"
"2023","101363","1101 E Hyde Park","Submitted","1101 E Hyde Park Boulevard","60615","1.5",,"Hyde Park","Multifamily Housing","69,631","1923","1",,"40","486,504.5","4,587,679.7",,,,"72.9","88.7","81.3","97.5","311.7","4.5","41.882987","-87.670719","POINT (-87.670719 41.882987)","2023-101363"
"2023","257032","Optima Lakeview","Submitted","3460 N Broadway St","60657","4.0",,"Lake View","Multifamily Housing","310,960","2022","1",,,"2,126,538.4","10,377,266.4",,,,"40.2","54.2","43.6","57.8","848.7","2.7","41.889647","-87.634169","POINT (-87.634169 41.889647)","2023-257032"
"2023","252294","Reside on Wellington","Submitted","510 West Wellington Avenue","60657","3.0",,"Lake View","Multifamily Housing","72,000","1949","1","2,342","68","1,090,084","4,754,203.1",,,,"81.2","111.7","89.3","119.8","405","5.6","41.848027","-87.640103","POINT (-87.640103 41.848027)","2023-252294"
